IATA,id,airport_name,city,country,ICAO,latitude,longitude,altitude,timezone,daylight_saving_time,database_timezone,type,source
AAL,628.0,Aalborg Airport,Aalborg,Denmark,EKYT,57.092758913800004,9.84924316406,10.0,1,E,Europe/Copenhagen,airport,OurAirports
AAQ,4353.0,Anapa Vityazevo Airport,Anapa,Russia,URKA,45.002101898193,37.347301483154,174.0,3,N,Europe/Moscow,airport,OurAirports
AAR,607.0,Aarhus Airport,Aarhus,Denmark,EKAH,56.2999992371,10.619000434899998,82.0,1,E,Europe/Copenhagen,airport,OurAirports
AAT,6946.0,Altay Airport,Altay,China,ZWAT,47.866667,88.116667,2491.0,8,U,Asia/Shanghai,airport,User
ABA,2955.0,Abakan Airport,Abakan,Russia,UNAA,53.7400016784668,91.38500213623048,831.0,7,N,Asia/Krasnoyarsk,airport,OurAirports
ABE,4355.0,Lehigh Valley International Airport,Allentown,United States,KABE,40.652099609375,-75.44080352783203,393.0,-5,A,America/New_York,airport,OurAirports
ABI,3718.0,Abilene Regional Airport,Abilene,United States,KABI,32.4113006592,-99.68190002440001,1791.0,-6,A,America/Chicago,airport,OurAirports
ABJ,253.0,Port Bouet Airport,Abidjan,Cote d'Ivoire,DIAP,5.261390209197998,-3.9262900352478023,21.0,0,N,Africa/Abidjan,airport,OurAirports
ABQ,4019.0,Albuquerque International Sunport Airport,Albuquerque,United States,KABQ,35.04019927978516,-106.60900115966795,5355.0,-7,A,America/Denver,airport,OurAirports
ABR,5714.0,Aberdeen Regional Airport,Aberdeen,United States,KABR,45.44910049438477,-98.42179870605469,1302.0,-6,A,America/Chicago,airport,OurAirports
ABS,1127.0,Abu Simbel Airport,Abu Simbel,Egypt,HEBL,22.3759994507,31.611700058,616.0,2,U,Africa/Cairo,airport,OurAirports
ABT,2061.0,Al Baha Airport,El-baha,Saudi Arabia,OEBA,20.296100616500002,41.6343002319,5486.0,3,U,Asia/Riyadh,airport,OurAirports
ABV,260.0,Nnamdi Azikiwe International Airport,Abuja,Nigeria,DNAA,9.006790161132812,7.263169765472412,1123.0,1,N,Africa/Lagos,airport,OurAirports
ABX,3333.0,Albury Airport,Albury,Australia,YMAY,-36.06779861450195,146.95799255371094,539.0,10,O,Australia/Sydney,airport,OurAirports
ABY,5715.0,Southwest Georgia Regional Airport,Albany,United States,KABY,31.535499572753906,-84.19450378417969,197.0,-5,A,America/New_York,airport,OurAirports
ABZ,532.0,Aberdeen Dyce Airport,Aberdeen,United Kingdom,EGPD,57.20190048217773,-2.1977798938751216,215.0,0,E,Europe/London,airport,OurAirports
ACA,1783.0,General Juan N Alvarez International Airport,Acapulco,Mexico,MMAA,16.757099151611328,-99.75399780273438,16.0,-6,S,America/Mexico_City,airport,OurAirports
ACC,248.0,Kotoka International Airport,Accra,Ghana,DGAA,5.605189800262451,-0.16678600013256073,205.0,0,N,Africa/Accra,airport,OurAirports
ACE,1055.0,Lanzarote Airport,Arrecife,Spain,GCRR,28.945499420166016,-13.605199813842773,46.0,0,E,Atlantic/Canary,airport,OurAirports
ACT,3700.0,Waco Regional Airport,Waco,United States,KACT,31.61129951477051,-97.23049926757812,516.0,-6,A,America/Chicago,airport,OurAirports
ACV,4384.0,Arcata Airport,Arcata CA,United States,KACV,40.97809982299805,-124.10900115966795,221.0,-8,A,America/Los_Angeles,airport,OurAirports
ACX,7506.0,Xingyi Airport,Xingyi,China,ZUYI,25.0863888889,104.959444444,4150.0,8,U,Asia/Shanghai,airport,OurAirports
ACY,3524.0,Atlantic City International Airport,Atlantic City,United States,KACY,39.45759963989258,-74.57720184326172,75.0,-5,A,America/New_York,airport,OurAirports
ADA,1685.0,Adana Airport,Adana,Turkey,LTAF,36.982200622600004,35.2803993225,65.0,3,E,Europe/Istanbul,airport,OurAirports
ADB,1706.0,Adnan Menderes International Airport,Izmir,Turkey,LTBJ,38.292400360100004,27.156999588,412.0,3,E,Europe/Istanbul,airport,OurAirports
ADD,1107.0,Addis Ababa Bole International Airport,Addis Ababa,Ethiopia,HAAB,8.97789001465,38.7993011475,7630.0,3,U,Africa/Addis_Ababa,airport,OurAirports
ADE,3977.0,Aden International Airport,Aden,Yemen,OYAA,12.829500198364258,45.02880096435547,7.0,3,U,Asia/Aden,airport,OurAirports
ADF,5800.0,Adıyaman Airport,Adiyaman,Turkey,LTCP,37.7313995361,38.4688987732,2216.0,3,E,Europe/Istanbul,airport,OurAirports
ADL,3341.0,Adelaide International Airport,Adelaide,Australia,YPAD,-34.94499969482422,138.531005859375,20.0,9.5,O,Australia/Adelaide,airport,OurAirports
ADZ,2749.0,Gustavo Rojas Pinilla International Airport,San Andres Island,Colombia,SKSP,12.5836,-81.7112,19.0,-5,U,America/Bogota,airport,OurAirports
AEP,2442.0,Jorge Newbery Airpark,Buenos Aires,Argentina,SABE,-34.5592,-58.4156,18.0,-3,N,America/Buenos_Aires,airport,OurAirports
AER,2965.0,Sochi International Airport,Sochi,Russia,URSS,43.449901580811,39.956600189209,89.0,3,N,Europe/Moscow,airport,OurAirports
AES,630.0,Ålesund Airport,Alesund,Norway,ENAL,62.5625,6.119699954986572,69.0,1,E,Europe/Oslo,airport,OurAirports
AEX,3852.0,Alexandria International Airport,Alexandria,United States,KAEX,31.32740020751953,-92.54979705810548,89.0,-6,A,America/Chicago,airport,OurAirports
AFA,2454.0,Suboficial Ay Santiago Germano Airport,San Rafael,Argentina,SAMR,-34.588299,-68.4039,2470.0,-3,N,America/Mendoza,airport,OurAirports
AGA,1064.0,Al Massira Airport,Agadir,Morocco,GMAD,30.32500076293945,-9.41306972503662,250.0,0,N,Africa/Casablanca,airport,OurAirports
AGH,5597.0,Ängelholm-Helsingborg Airport,Ängelholm,Sweden,ESTA,56.29610061645508,12.847100257873535,68.0,1,E,Europe/Stockholm,airport,OurAirports
AGP,1230.0,Málaga Airport,Malaga,Spain,LEMG,36.67490005493164,-4.499110221862793,53.0,1,E,Europe/Madrid,airport,OurAirports
AGR,3079.0,Agra Airport,Agra,India,VIAG,27.155799865722656,77.96089935302734,551.0,5.5,N,Asia/Calcutta,airport,OurAirports
AGS,3658.0,Augusta Regional At Bush Field,Bush Field,United States,KAGS,33.36989974975586,-81.9645004272461,144.0,-5,A,America/New_York,airport,OurAirports
AGT,4305.0,Guarani International Airport,Ciudad del Este,Paraguay,SGES,-25.454516,-54.842681999999996,846.0,-4,S,America/Asuncion,airport,OurAirports
AGU,1785.0,Jesús Terán Paredo International Airport,Aguascalientes,Mexico,MMAS,21.705601,-102.318001,6112.0,-6,S,America/Mexico_City,airport,OurAirports
AGX,3130.0,Agatti Airport,Agatti Island,India,VOAT,10.823699951171877,72.1760025024414,14.0,5.5,N,Asia/Calcutta,airport,OurAirports
AHB,2059.0,Abha Regional Airport,Abha,Saudi Arabia,OEAB,18.2404003143,42.65660095210001,6858.0,3,U,Asia/Riyadh,airport,OurAirports
AHO,1517.0,Alghero-Fertilia Airport,Alghero,Italy,LIEA,40.632099,8.29077,87.0,1,E,Europe/Rome,airport,OurAirports
AIA,7067.0,Alliance Municipal Airport,Alliance,United States,KAIA,42.0531997681,-102.804000854,3931.0,-7,A,America/Denver,airport,OurAirports
AIT,1958.0,Aitutaki Airport,Aitutaki,Cook Islands,NCAI,-18.830900192260746,-159.76400756835938,14.0,-10,U,Pacific/Rarotonga,airport,OurAirports
AJA,1324.0,Ajaccio-Napoléon Bonaparte Airport,Ajaccio,France,LFKJ,41.92359924316406,8.8029203414917,18.0,1,E,Europe/Paris,airport,OurAirports
AJF,5925.0,Al-Jawf Domestic Airport,Al-Jawf,Saudi Arabia,OESK,29.78510093688965,40.099998474121094,2261.0,3,U,Asia/Riyadh,airport,OurAirports
AJI,5799.0,Ağrı Airport,Agri,Turkey,LTCO,39.654541015625,43.025978088378906,5462.0,3,E,Europe/Istanbul,airport,OurAirports
AJL,3039.0,Lengpui Airport,Aizwal,India,VELP,23.8405990601,92.6196975708,1398.0,5.5,N,Asia/Calcutta,airport,OurAirports
AJR,730.0,Arvidsjaur Airport,Arvidsjaur,Sweden,ESNX,65.59030151367189,19.28190040588379,1245.0,1,E,Europe/Stockholm,airport,OurAirports
AJU,2522.0,Santa Maria Airport,Aracaju,Brazil,SBAR,-10.984000206,-37.0703010559,23.0,-3,S,America/Fortaleza,airport,OurAirports
AKJ,2299.0,Asahikawa Airport,Asahikawa,Japan,RJEC,43.670799255371094,142.44700622558594,721.0,9,U,Asia/Tokyo,airport,OurAirports
AKL,2006.0,Auckland International Airport,Auckland,New Zealand,NZAA,-37.0080986023,174.79200744599999,23.0,12,Z,Pacific/Auckland,airport,OurAirports
AKU,6404.0,Aksu Airport,Aksu,China,ZWAK,41.262501,80.291702,3816.0,8,U,Asia/Shanghai,airport,OurAirports
ALA,2908.0,Almaty Airport,Alma-ata,Kazakhstan,UAAA,43.35210037231445,77.04049682617188,2234.0,6,U,Asia/Qyzylorda,airport,OurAirports
ALB,3864.0,Albany International Airport,Albany,United States,KALB,42.74829864501953,-73.80169677734375,285.0,-5,A,America/New_York,airport,OurAirports
ALC,1212.0,Alicante International Airport,Alicante,Spain,LEAL,38.28219985961914,-0.5581560134887695,142.0,1,E,Europe/Madrid,airport,OurAirports
ALF,632.0,Alta Airport,Alta,Norway,ENAT,69.976097106934,23.371700286865,9.0,1,E,Europe/Oslo,airport,OurAirports
ALG,210.0,Houari Boumediene Airport,Algier,Algeria,DAAG,36.691001892089844,3.215409994125366,82.0,1,N,Africa/Algiers,airport,OurAirports
ALH,6235.0,Albany Airport,Albany,Australia,YABA,-34.94329833984375,117.80899810791016,233.0,8,O,Australia/Perth,airport,OurAirports
ALO,5718.0,Waterloo Regional Airport,Waterloo,United States,KALO,42.55709838867188,-92.40029907226562,873.0,-6,A,America/Chicago,airport,OurAirports
ALS,7073.0,San Luis Valley Regional Bergman Field,Alamosa,United States,KALS,37.434898,-105.866997,7539.0,-7,A,America/Denver,airport,OurAirports
AMA,3840.0,Rick Husband Amarillo International Airport,Amarillo,United States,KAMA,35.219398498535156,-101.70600128173828,3607.0,-6,A,America/Chicago,airport,OurAirports
AMD,2994.0,Sardar Vallabhbhai Patel International Airport,Ahmedabad,India,VAAH,23.0771999359,72.63469696039998,189.0,5.5,N,Asia/Calcutta,airport,OurAirports
AMH,1109.0,Arba Minch Airport,Arba Minch,Ethiopia,HAAM,6.0393900871276855,37.59049987792969,3901.0,3,U,Africa/Addis_Ababa,airport,OurAirports
AMM,2170.0,Queen Alia International Airport,Amman,Jordan,OJAI,31.7226009369,35.9931983948,2395.0,2,E,Asia/Amman,airport,OurAirports
AMQ,3256.0,"Pattimura Airport, Ambon",Ambon,Indonesia,WAPP,-3.7102599144,128.089004517,33.0,9,N,Asia/Jayapura,airport,OurAirports
AMS,580.0,Amsterdam Airport Schiphol,Amsterdam,Netherlands,EHAM,52.308601379399995,4.7638897895799985,-11.0,1,E,Europe/Amsterdam,airport,OurAirports
ANC,3774.0,Ted Stevens Anchorage International Airport,Anchorage,United States,PANC,61.174400329589844,-149.99600219726562,152.0,-9,A,America/Anchorage,airport,OurAirports
ANF,2651.0,Cerro Moreno Airport,Antofagasta,Chile,SCFA,-23.444499969482425,-70.44509887695312,455.0,-4,S,America/Santiago,airport,OurAirports
ANR,299.0,Antwerp International Airport (Deurne),Antwerp,Belgium,EBAW,51.189399719200004,4.46027994156,39.0,1,E,Europe/Brussels,airport,OurAirports
ANU,2874.0,V.C. Bird International Airport,Antigua,Antigua and Barbuda,TAPA,17.1367,-61.792702,62.0,-4,U,America/Antigua,airport,OurAirports
AOE,6780.0,Anadolu Airport,Eskissehir,Turkey,LTBY,39.809898,30.5194,2588.0,3,E,Europe/Istanbul,airport,OurAirports
AOG,9844.0,Anshan Air Base,Anshan,China,ZYAS,41.105301000000004,122.853996,0.0,8,N,Asia/Shanghai,airport,OurAirports
AOI,4309.0,Ancona Falconara Airport,Ancona,Italy,LIPY,43.616299,13.3623,49.0,1,E,Europe/Rome,airport,OurAirports
AOJ,2340.0,Aomori Airport,Aomori,Japan,RJSA,40.73469924926758,140.69099426269528,664.0,9,U,Asia/Tokyo,airport,OurAirports
AOK,1459.0,Karpathos Airport,Karpathos,Greece,LGKP,35.4213981628418,27.145999908447266,66.0,2,E,Europe/Athens,airport,OurAirports
AOO,3694.0,Altoona Blair County Airport,Altoona,United States,KAOO,40.29639816,-78.31999969,1503.0,-5,A,America/New_York,airport,OurAirports
AOR,3296.0,Sultan Abdul Halim Airport,Alor Setar,Malaysia,WMKA,6.189670085906982,100.39800262451172,15.0,8,N,Asia/Kuala_Lumpur,airport,OurAirports
APL,984.0,Nampula Airport,Nampula,Mozambique,FQNP,-15.105600357055664,39.28179931640625,1444.0,2,U,Africa/Maputo,airport,OurAirports
APN,5720.0,Alpena County Regional Airport,Alpena,United States,KAPN,45.07809829999999,-83.56030273,690.0,-5,A,America/New_York,airport,OurAirports
APO,2726.0,Antonio Roldan Betancourt Airport,Carepa,Colombia,SKLC,7.811960000000001,-76.7164,46.0,-5,U,America/Bogota,airport,OurAirports
APW,1969.0,Faleolo International Airport,Faleolo,Samoa,NSFA,-13.829999923706055,-172.00799560546875,58.0,13,U,Pacific/Apia,airport,OurAirports
AQG,6427.0,Anqing Tianzhushan Airport,Anqing,China,ZSAQ,30.582199,117.050003,0.0,8,N,Asia/Shanghai,airport,OurAirports
AQI,2076.0,Al Qaisumah/Hafr Al Batin Airport,Hafr Al-batin,Saudi Arabia,OEPA,28.335199,46.125099,1174.0,3,U,Asia/Riyadh,airport,OurAirports
AQJ,2172.0,Aqaba King Hussein International Airport,Aqaba,Jordan,OJAQ,29.61160087585449,35.01810073852539,175.0,2,E,Asia/Amman,airport,OurAirports
AQP,2802.0,Rodríguez Ballón International Airport,Arequipa,Peru,SPQU,-16.3411006927,-71.5830993652,8405.0,-5,U,America/Lima,airport,OurAirports
ARH,4362.0,Talagi Airport,Arkhangelsk,Russia,ULAA,64.60030364990234,40.71670150756836,62.0,3,N,Europe/Moscow,airport,OurAirports
ARM,4062.0,Armidale Airport,Armidale,Australia,YARM,-30.5280990601,151.617004395,3556.0,10,O,Australia/Sydney,airport,OurAirports
ARN,737.0,Stockholm-Arlanda Airport,Stockholm,Sweden,ESSA,59.651901245116996,17.918600082397,137.0,1,E,Europe/Stockholm,airport,OurAirports
ART,3838.0,Watertown International Airport,Watertown,United States,KART,43.99190139770508,-76.02169799804688,325.0,-5,A,America/New_York,airport,OurAirports
ASB,2976.0,Ashgabat Airport,Ashkhabad,Turkmenistan,UTAA,37.98680114746094,58.361000061035156,692.0,5,U,Asia/Ashgabat,airport,OurAirports
ASE,7001.0,Aspen-Pitkin Co/Sardy Field,Aspen,United States,KASE,39.22320175,-106.8690033,7820.0,-7,A,America/Denver,airport,OurAirports
ASF,2966.0,Astrakhan Airport,Astrakhan,Russia,URWA,46.2832984924,48.0063018799,-65.0,4,N,Europe/Samara,airport,OurAirports
ASJ,2316.0,Amami Airport,Amami,Japan,RJKA,28.430599212646484,129.71299743652344,27.0,9,U,Asia/Tokyo,airport,OurAirports
ASM,3967.0,Asmara International Airport,Asmara,Eritrea,HHAS,15.291899681091307,38.91070175170898,7661.0,3,U,Africa/Asmera,airport,OurAirports
ASO,1119.0,Asosa Airport,Asosa,Ethiopia,HASO,10.018500328063963,34.586299896240234,5100.0,3,U,Africa/Addis_Ababa,airport,OurAirports
ASP,3319.0,Alice Springs Airport,Alice Springs,Australia,YBAS,-23.806699752807614,133.90199279785156,1789.0,9.5,N,Australia/Darwin,airport,OurAirports
ASR,1696.0,Kayseri Erkilet Airport,Kayseri,Turkey,LTAU,38.770401000999996,35.4953994751,3463.0,3,E,Europe/Istanbul,airport,OurAirports
ASU,2699.0,Silvio Pettirossi International Airport,Asuncion,Paraguay,SGAS,-25.239999771118164,-57.52000045776367,292.0,-4,S,America/Asuncion,airport,OurAirports
ASW,1136.0,Aswan International Airport,Aswan,Egypt,HESN,23.964399337800003,32.8199996948,662.0,2,U,Africa/Cairo,airport,OurAirports
ATH,3941.0,Eleftherios Venizelos International Airport,Athens,Greece,LGAV,37.9364013672,23.944499969499997,308.0,2,E,Europe/Athens,airport,OurAirports
ATL,3682.0,Hartsfield Jackson Atlanta International Airport,Atlanta,United States,KATL,33.63669967651367,-84.4281005859375,1026.0,-5,A,America/New_York,airport,OurAirports
ATQ,3081.0,Sri Guru Ram Dass Jee International Airport,Amritsar,India,VIAR,31.7096004486,74.7973022461,756.0,5.5,N,Asia/Calcutta,airport,OurAirports
ATW,4047.0,Appleton International Airport,Appleton,United States,KATW,44.258098602299995,-88.51909637450001,918.0,-6,A,America/Chicago,airport,OurAirports
ATZ,5691.0,Assiut International Airport,Asyut,Egypt,HEAT,27.0464992523,31.0119991302,772.0,2,U,Africa/Cairo,airport,OurAirports
AUA,2895.0,Queen Beatrix International Airport,Oranjestad,Aruba,TNCA,12.501399993896484,-70.01519775390625,60.0,-4,U,America/Aruba,airport,OurAirports
AUC,2752.0,Santiago Perez Airport,Arauca,Colombia,SKUC,7.06888,-70.7369,420.0,-5,U,America/Bogota,airport,OurAirports
AUH,2179.0,Abu Dhabi International Airport,Abu Dhabi,United Arab Emirates,OMAA,24.433000564575195,54.651100158691406,88.0,4,U,Asia/Dubai,airport,OurAirports
AUS,3673.0,Austin Bergstrom International Airport,Austin,United States,KAUS,30.194499969482425,-97.6698989868164,542.0,-6,A,America/Chicago,airport,OurAirports
AVA,9849.0,Anshun Huangguoshu Airport,Anshun,China,ZUAS,26.2605555556,105.87333333299999,4812.0,8,N,Asia/Shanghai,airport,OurAirports
AVL,4007.0,Asheville Regional Airport,Asheville,United States,KAVL,35.43619918823242,-82.54180145263672,2165.0,-5,A,America/New_York,airport,OurAirports
AVP,4286.0,Wilkes Barre Scranton International Airport,Scranton,United States,KAVP,41.338500976599995,-75.72339630130001,962.0,-5,A,America/New_York,airport,OurAirports
AWZ,2104.0,Ahwaz Airport,Ahwaz,Iran,OIAW,31.3374004364,48.7620010376,66.0,3.5,E,Asia/Tehran,airport,OurAirports
AXD,1446.0,Dimokritos Airport,Alexandroupolis,Greece,LGAL,40.855899810791016,25.956300735473636,24.0,2,E,Europe/Athens,airport,OurAirports
AXM,2705.0,El Eden Airport,Armenia,Colombia,SKAR,4.452780000000001,-75.7664,3990.0,-5,U,America/Bogota,airport,OurAirports
AXT,2345.0,Akita Airport,Akita,Japan,RJSK,39.6156005859375,140.218994140625,313.0,9,U,Asia/Tokyo,airport,OurAirports
AXU,1110.0,Axum Airport,Axum,Ethiopia,HAAX,14.14680004119873,38.77280044555664,6959.0,3,U,Africa/Addis_Ababa,airport,OurAirports
AYQ,4010.0,Ayers Rock Connellan Airport,Uluru,Australia,YAYE,-25.1861,130.975998,1626.0,9.5,N,Australia/Darwin,airport,OurAirports
AYT,1688.0,Antalya International Airport,Antalya,Turkey,LTAI,36.898701,30.800501,177.0,3,E,Europe/Istanbul,airport,OurAirports
AZD,2164.0,Shahid Sadooghi Airport,Yazd,Iran,OIYY,31.904899597199996,54.2765007019,4054.0,3.5,E,Asia/Tehran,airport,OurAirports
AZO,4039.0,Kalamazoo Battle Creek International Airport,Kalamazoo,United States,KAZO,42.234901428222656,-85.5521011352539,874.0,-5,A,America/New_York,airport,OurAirports
AZS,5810.0,Samaná El Catey International Airport,Samana,Dominican Republic,MDCY,19.267000198399998,-69.7419967651,30.0,-4,U,America/Santo_Domingo,airport,OurAirports
BAH,2057.0,Bahrain International Airport,Bahrain,Bahrain,OBBI,26.27079963684082,50.63359832763672,6.0,3,U,Asia/Bahrain,airport,OurAirports
BAL,1729.0,Batman Airport,Batman,Turkey,LTCJ,37.929000854499996,41.1166000366,1822.0,3,E,Europe/Istanbul,airport,OurAirports
BAQ,2710.0,Ernesto Cortissoz International Airport,Barranquilla,Colombia,SKBQ,10.8896,-74.7808,98.0,-5,U,America/Bogota,airport,OurAirports
BAV,6346.0,Baotou Airport,Baotou,China,ZBOW,40.560001373291016,109.99700164794922,3321.0,8,U,Asia/Shanghai,airport,OurAirports
BAX,2956.0,Barnaul Airport,Barnaul,Russia,UNBB,53.36380004882813,83.53849792480469,837.0,7,N,Asia/Krasnoyarsk,airport,OurAirports
BAY,1649.0,Tautii Magheraus Airport,Baia Mare,Romania,LRBM,47.65840148925781,23.46999931335449,605.0,2,E,Europe/Bucharest,airport,OurAirports
BBI,3042.0,Biju Patnaik Airport,Bhubaneswar,India,VEBS,20.2444000244,85.8178024292,138.0,5.5,N,Asia/Calcutta,airport,OurAirports
BBK,879.0,Kasane Airport,Kasane,Botswana,FBKE,-17.83289909362793,25.16239929199219,3289.0,2,U,Africa/Gaborone,airport,OurAirports
BBN,6220.0,Bario Airport,Bario,Malaysia,WBGZ,3.7338900566101074,115.47899627685548,3350.0,8,N,Asia/Kuala_Lumpur,airport,OurAirports
BCI,6238.0,Barcaldine Airport,Barcaldine,Australia,YBAR,-23.565299987800003,145.307006836,878.0,10,O,Australia/Brisbane,airport,OurAirports
BCN,1218.0,Barcelona International Airport,Barcelona,Spain,LEBL,41.297100067139,2.0784599781036,12.0,1,E,Europe/Madrid,airport,OurAirports
BDA,4069.0,L.F. Wade International International Airport,Bermuda,Bermuda,TXKF,32.363998413085945,-64.67870330810547,12.0,-4,A,Atlantic/Bermuda,airport,OurAirports
BDB,4218.0,Bundaberg Airport,Bundaberg,Australia,YBUD,-24.9039001465,152.319000244,107.0,10,O,Australia/Brisbane,airport,OurAirports
BDJ,3908.0,Syamsudin Noor Airport,Banjarmasin,Indonesia,WAOO,-3.4423599243164062,114.76300048828124,66.0,8,N,Asia/Makassar,airport,OurAirports
BDL,3825.0,Bradley International Airport,Windsor Locks,United States,KBDL,41.9388999939,-72.68319702149999,173.0,-5,A,America/New_York,airport,OurAirports
BDO,3896.0,Husein Sastranegara International Airport,Bandung,Indonesia,WICC,-6.900629997253418,107.57599639892578,2436.0,7,N,Asia/Jakarta,airport,OurAirports
BDQ,3001.0,Vadodara Airport,Baroda,India,VABO,22.3362007141,73.2263031006,129.0,5.5,N,Asia/Calcutta,airport,OurAirports
BDS,1506.0,Brindisi – Salento Airport,Brindisi,Italy,LIBR,40.6576,17.947001,47.0,1,E,Europe/Rome,airport,OurAirports
BEG,1739.0,Belgrade Nikola Tesla Airport,Belgrade,Serbia,LYBE,44.8184013367,20.3090991974,335.0,1,E,Europe/Belgrade,airport,OurAirports
BEJ,6209.0,Barau(Kalimaru) Airport,Tanjung Redep-Borneo Island,Indonesia,WALK,2.15549993515,117.431999207,59.0,8,N,Asia/Makassar,airport,OurAirports
BEL,2526.0,Val de Cans/Júlio Cezar Ribeiro International Airport,Belem,Brazil,SBBE,-1.3792500495900002,-48.476299285900005,54.0,-3,S,America/Belem,airport,OurAirports
BEN,1154.0,Benina International Airport,Benghazi,Libya,HLLB,32.096801757799994,20.2695007324,433.0,2,N,Africa/Tripoli,airport,OurAirports
BES,1403.0,Brest Bretagne Airport,Brest,France,LFRB,48.4478988647461,-4.418540000915527,325.0,1,E,Europe/Paris,airport,OurAirports
BEW,974.0,Beira Airport,Beira,Mozambique,FQBR,-19.79640007019043,34.90760040283203,33.0,2,U,Africa/Maputo,airport,OurAirports
BEY,2177.0,Beirut Rafic Hariri International Airport,Beirut,Lebanon,OLBA,33.820899963378906,35.488399505615234,87.0,2,E,Asia/Beirut,airport,OurAirports
BFD,5722.0,Bradford Regional Airport,Bradford,United States,KBFD,41.8031005859375,-78.64009857177734,2143.0,-5,A,America/New_York,airport,OurAirports
BFJ,9025.0,Bijie Feixiong Airport,Bijie,China,ZUBJ,27.267065999999996,105.47209699999999,4751.0,8,N,Asia/Shanghai,airport,OurAirports
BFL,3558.0,Meadows Field,Bakersfield,United States,KBFL,35.43360138,-119.0569992,510.0,-8,A,America/Los_Angeles,airport,OurAirports
BFN,794.0,Bram Fischer International Airport,Bloemfontein,South Africa,FABL,-29.092699050900002,26.302400589,4458.0,2,U,Africa/Johannesburg,airport,OurAirports
BFS,465.0,Belfast International Airport,Belfast,United Kingdom,EGAA,54.6575012207,-6.21582984924,268.0,0,E,Europe/London,airport,OurAirports
BGA,2708.0,Palonegro Airport,Bucaramanga,Colombia,SKBG,7.1265,-73.1848,3897.0,-5,U,America/Bogota,airport,OurAirports
BGF,888.0,Bangui M'Poko International Airport,Bangui,Central African Republic,FEFF,4.39847993850708,18.518800735473636,1208.0,1,N,Africa/Bangui,airport,OurAirports
BGG,9272.0,Bingol,Bingol,Turkey,LTCU,38.86111,40.5925,3490.0,3,E,Europe/Istanbul,unknown,User
BGI,2875.0,Sir Grantley Adams International Airport,Bridgetown,Barbados,TBPB,13.0746002197,-59.492500305200004,169.0,-4,U,America/Barbados,airport,OurAirports
BGM,4129.0,Greater Binghamton/Edwin A Link field,Binghamton,United States,KBGM,42.20869827,-75.97979736,1636.0,-5,A,America/New_York,airport,OurAirports
BGO,636.0,Bergen Airport Flesland,Bergen,Norway,ENBR,60.29339981,5.218140125,170.0,1,E,Europe/Oslo,airport,OurAirports
BGR,3463.0,Bangor International Airport,Bangor,United States,KBGR,44.80739974975586,-68.82810211181639,192.0,-5,A,America/New_York,airport,OurAirports
BGW,4130.0,Baghdad International Airport,Baghdad,Iraq,ORBI,33.262500762900004,44.2346000671,114.0,3,U,Asia/Baghdad,airport,OurAirports
BHD,467.0,George Best Belfast City Airport,Belfast,United Kingdom,EGAC,54.61809921264648,-5.872499942779541,15.0,0,E,Europe/London,airport,OurAirports
BHE,2037.0,Woodbourne Airport,Woodbourne,New Zealand,NZWB,-41.5182991027832,173.8699951171875,109.0,12,Z,Pacific/Auckland,airport,OurAirports
BHH,2062.0,Bisha Airport,Bisha,Saudi Arabia,OEBH,19.984399795532227,42.62089920043945,3887.0,3,U,Asia/Riyadh,airport,OurAirports
BHI,2501.0,Comandante Espora Airport,Bahia Blanca,Argentina,SAZB,-38.725,-62.1693,246.0,-3,N,America/Buenos_Aires,airport,OurAirports
BHK,2980.0,Bukhara Airport,Bukhara,Uzbekistan,UTSB,39.775001525878906,64.48329925537111,751.0,5,U,Asia/Samarkand,airport,OurAirports
BHM,3811.0,Birmingham-Shuttlesworth International Airport,Birmingham,United States,KBHM,33.56290054,-86.75350189,650.0,-6,A,America/Chicago,airport,OurAirports
BHO,3002.0,Raja Bhoj International Airport,Bhopal,India,VABP,23.2875003815,77.33740234380001,1711.0,5.5,N,Asia/Calcutta,airport,OurAirports
BHX,469.0,Birmingham International Airport,Birmingham,United Kingdom,EGBB,52.4538993835,-1.7480299472799998,327.0,0,E,Europe/London,airport,OurAirports
BHY,6351.0,Beihai Airport,Beihai,China,ZGBH,21.5394,109.293999,0.0,8,U,Asia/Shanghai,airport,OurAirports
BIA,1321.0,Bastia-Poretta Airport,Bastia,France,LFKB,42.55270004272461,9.48373031616211,26.0,1,E,Europe/Paris,airport,OurAirports
BIK,3241.0,Frans Kaisiepo Airport,Biak,Indonesia,WABB,-1.190019965171814,136.10800170898438,46.0,9,N,Asia/Jayapura,airport,OurAirports
BIL,4021.0,Billings Logan International Airport,Billings,United States,KBIL,45.807701110839844,-108.54299926757812,3652.0,-7,A,America/Denver,airport,OurAirports
BIM,1937.0,South Bimini Airport,Alice Town,Bahamas,MYBS,25.6998996735,-79.2647018433,10.0,-5,U,America/Nassau,airport,OurAirports
BIO,1216.0,Bilbao Airport,Bilbao,Spain,LEBB,43.30110168457031,-2.9106099605560303,138.0,1,E,Europe/Madrid,airport,OurAirports
BIQ,1280.0,Biarritz-Anglet-Bayonne Airport,Biarritz-bayonne,France,LFBZ,43.4683333,-1.5311111000000002,245.0,1,E,Europe/Paris,airport,OurAirports
BIS,4083.0,Bismarck Municipal Airport,Bismarck,United States,KBIS,46.77270126342773,-100.74600219726562,1661.0,-6,A,America/Chicago,airport,OurAirports
BJI,4287.0,Bemidji Regional Airport,Bemidji,United States,KBJI,47.50939941,-94.93370056,1391.0,-6,A,America/Chicago,airport,OurAirports
BJL,1050.0,Banjul International Airport,Banjul,Gambia,GBYD,13.338000297546387,-16.65220069885254,95.0,0,N,Africa/Banjul,airport,OurAirports
BJM,1120.0,Bujumbura International Airport,Bujumbura,Burundi,HBBA,-3.3240199089050293,29.318500518798828,2582.0,2,U,Africa/Bujumbura,airport,OurAirports
BJR,1111.0,Bahir Dar Airport,Bahar Dar,Ethiopia,HABD,11.608099937438965,37.32160186767578,5978.0,3,U,Africa/Addis_Ababa,airport,OurAirports
BJV,4315.0,Milas Bodrum International Airport,Bodrum,Turkey,LTFE,37.25059890749999,27.664300918600002,21.0,3,E,Europe/Istanbul,airport,OurAirports
BJX,1815.0,Del Bajío International Airport,Del Bajio,Mexico,MMLO,20.993499755900004,-101.48100280799999,5956.0,-6,S,America/Mexico_City,airport,OurAirports
BJZ,1219.0,Badajoz Airport,Badajoz,Spain,LEBZ,38.891300201416016,-6.8213300704956055,609.0,1,E,Europe/Madrid,airport,OurAirports
BKI,3269.0,Kota Kinabalu International Airport,Kota Kinabalu,Malaysia,WBKK,5.9372100830078125,116.0510025024414,10.0,8,N,Asia/Kuala_Lumpur,airport,OurAirports
BKK,3885.0,Suvarnabhumi Airport,Bangkok,Thailand,VTBS,13.681099891662598,100.74700164794922,5.0,7,U,Asia/Bangkok,airport,OurAirports
BKM,6218.0,Bakalalan Airport,Bakalalan,Malaysia,WBGQ,3.973999977111816,115.61799621582031,2900.0,8,N,Asia/Kuala_Lumpur,airport,OurAirports
BKO,1044.0,Senou Airport,Bamako,Mali,GABS,12.533499717712402,-7.949940204620361,1247.0,0,N,Africa/Bamako,airport,OurAirports
BKQ,4217.0,Blackall Airport,Blackall,Australia,YBCK,-24.427799224900003,145.429000854,928.0,10,O,Australia/Brisbane,airport,OurAirports
BKS,3288.0,Fatmawati Soekarno Airport,Bengkulu,Indonesia,WIPL,-3.8637,102.33899699999999,50.0,7,N,Asia/Jakarta,airport,OurAirports
BKW,5724.0,Raleigh County Memorial Airport,Beckley,United States,KBKW,37.787300109899995,-81.1241989136,2504.0,-5,A,America/New_York,airport,OurAirports
BLL,608.0,Billund Airport,Billund,Denmark,EKBI,55.7402992249,9.15178012848,247.0,1,E,Europe/Copenhagen,airport,OurAirports
BLQ,1538.0,Bologna Guglielmo Marconi Airport,Bologna,Italy,LIPE,44.5354,11.2887,123.0,1,E,Europe/Rome,airport,OurAirports
BLR,3131.0,Kempegowda International Airport,Bangalore,India,VOBL,13.1979,77.706299,3000.0,5.5,N,Asia/Calcutta,airport,OurAirports
BLZ,1013.0,Chileka International Airport,Blantyre,Malawi,FWCL,-15.679100036621096,34.9739990234375,2555.0,2,U,Africa/Blantyre,airport,OurAirports
BMA,738.0,Stockholm-Bromma Airport,Stockholm,Sweden,ESSB,59.35440063476562,17.941699981689453,47.0,1,E,Europe/Stockholm,airport,OurAirports
BME,4319.0,Broome International Airport,Broome,Australia,YBRM,-17.944700241088867,122.23200225830078,56.0,8,O,Australia/Perth,airport,OurAirports
BMI,4037.0,Central Illinois Regional Airport at Bloomington-Normal,Bloomington,United States,KBMI,40.47710037,-88.91590118,871.0,-6,A,America/Chicago,airport,OurAirports
BMU,3924.0,Muhammad Salahuddin Airport,Bima,Indonesia,WADB,-8.539649963378901,118.68699645996,3.0,8,N,Asia/Makassar,airport,OurAirports
BMV,6187.0,Buon Ma Thuot Airport,Buonmethuot,Vietnam,VVBM,12.668299675,108.120002747,1729.0,7,U,Asia/Saigon,airport,OurAirports
BNA,3690.0,Nashville International Airport,Nashville,United States,KBNA,36.1245002746582,-86.6781997680664,599.0,-6,A,America/Chicago,airport,OurAirports
BNE,3320.0,Brisbane International Airport,Brisbane,Australia,YBBN,-27.38419914245605,153.11700439453125,13.0,10,N,Australia/Brisbane,airport,OurAirports
BOD,1264.0,Bordeaux-Mérignac Airport,Bordeaux,France,LFBD,44.8283004761,-0.7155560255050001,162.0,1,E,Europe/Paris,airport,OurAirports
BOG,2709.0,El Dorado International Airport,Bogota,Colombia,SKBO,4.70159,-74.1469,8361.0,-5,U,America/Bogota,airport,OurAirports
BOI,3495.0,Boise Air Terminal/Gowen field,Boise,United States,KBOI,43.56439972,-116.22299960000001,2871.0,-7,A,America/Denver,airport,OurAirports
BOJ,1191.0,Burgas Airport,Bourgas,Bulgaria,LBBG,42.56959915161133,27.515199661254886,135.0,2,E,Europe/Sofia,airport,OurAirports
BOM,2997.0,Chhatrapati Shivaji International Airport,Mumbai,India,VABB,19.088699340799998,72.8678970337,39.0,5.5,N,Asia/Calcutta,airport,OurAirports
BON,2896.0,Flamingo International Airport,Kralendijk,Netherlands Antilles,TNCB,12.130999565124512,-68.26850128173828,20.0,-4,U,America/Curacao,airport,OurAirports
BOO,635.0,Bodø Airport,Bodo,Norway,ENBO,67.26920318603516,14.365300178527832,42.0,1,E,Europe/Oslo,airport,OurAirports
BOS,3448.0,General Edward Lawrence Logan International Airport,Boston,United States,KBOS,42.36429977,-71.00520325,20.0,-5,A,America/New_York,airport,OurAirports
BPN,3919.0,Sultan Aji Muhamad Sulaiman Airport,Balikpapan,Indonesia,WALL,-1.2682700157200002,116.89399719200001,12.0,8,N,Asia/Makassar,airport,OurAirports
BPS,4209.0,Porto Seguro Airport,Porto Seguro,Brazil,SBPS,-16.438600540161133,-39.08089828491211,168.0,-3,S,America/Fortaleza,airport,OurAirports
BPT,3612.0,Southeast Texas Regional Airport,Beaumont,United States,KBPT,29.9507999420166,-94.02069854736328,15.0,-6,A,America/Chicago,airport,OurAirports
BPX,6396.0,Qamdo Bangda Airport,Bangda,China,ZUBD,30.553600311279297,97.1082992553711,14219.0,8,U,Asia/Shanghai,airport,OurAirports
BQB,9090.0,Busselton Regional Airport,Brusselton,Australia,YBLN,-33.688423156700004,115.40159606899999,55.0,8,O,Australia/Perth,airport,OurAirports
BQK,5725.0,Brunswick Golden Isles Airport,Brunswick,United States,KBQK,31.2588005065918,-81.46649932861328,26.0,-5,A,America/New_York,airport,OurAirports
BQN,2885.0,Rafael Hernandez Airport,Aguadilla,Puerto Rico,TJBQ,18.49489974975586,-67.12940216064453,237.0,-4,U,America/Puerto_Rico,airport,OurAirports
BRC,2513.0,San Carlos De Bariloche Airport,San Carlos De Bariloche,Argentina,SAZS,-41.1511993408,-71.1575012207,2774.0,-3,N,America/Argentina/Salta,airport,OurAirports
BRD,6957.0,Brainerd Lakes Regional Airport,Brainerd,United States,KBRD,46.39830017,-94.13809967,1232.0,-6,U,America/Chicago,airport,OurAirports
BRE,353.0,Bremen Airport,Bremen,Germany,EDDW,53.0475006104,8.78666973114,14.0,1,E,Europe/Berlin,airport,OurAirports
BRI,1501.0,Bari Karol Wojtyła Airport,Bari,Italy,LIBD,41.138901000000004,16.760599,177.0,1,E,Europe/Rome,airport,OurAirports
BRO,3738.0,Brownsville South Padre Island International Airport,Brownsville,United States,KBRO,25.90679931640625,-97.4259033203125,22.0,-6,A,America/Chicago,airport,OurAirports
BRS,490.0,Bristol Airport,Bristol,United Kingdom,EGGD,51.382702,-2.71909,622.0,0,E,Europe/London,airport,OurAirports
BRU,302.0,Brussels Airport,Brussels,Belgium,EBBR,50.9014015198,4.48443984985,184.0,1,E,Europe/Brussels,airport,OurAirports
BSB,2531.0,Presidente Juscelino Kubistschek International Airport,Brasilia,Brazil,SBBR,-15.86916732788086,-47.92083358764648,3497.0,-3,S,America/Sao_Paulo,airport,OurAirports
BSD,7505.0,Baoshan Airport,Baoshan,China,ZPBS,25.053333,99.16833299999999,500.0,8,U,Asia/Shanghai,airport,User
BSL,1423.0,EuroAirport Basel-Mulhouse-Freiburg Airport,Mulhouse,France,LFSB,47.59,7.5291667,885.0,1,E,Europe/Paris,airport,OurAirports
BSR,2234.0,Basrah International Airport,Basrah,Iraq,ORMM,30.54910087585449,47.66210174560547,11.0,3,U,Asia/Baghdad,airport,OurAirports
BTC,,,,,,,,,,,,,
BTH,3903.0,Hang Nadim International Airport,Batam,Indonesia,WIDD,1.12102997303,104.119003296,126.0,7,N,Asia/Jakarta,airport,OurAirports
BTJ,3294.0,Sultan Iskandar Muda International Airport,Banda Aceh,Indonesia,WITT,5.5228720240100015,95.42063713070002,65.0,7,N,Asia/Jakarta,airport,OurAirports
BTK,2936.0,Bratsk Airport,Bratsk,Russia,UIBB,56.37060165405274,101.697998046875,1610.0,8,N,Asia/Irkutsk,airport,OurAirports
BTM,4022.0,Bert Mooney Airport,Butte,United States,KBTM,45.95479965209961,-112.49700164794922,5550.0,-7,A,America/Denver,airport,OurAirports
BTR,3846.0,"Baton Rouge Metropolitan, Ryan Field",Baton Rouge,United States,KBTR,30.53319931,-91.14959717,70.0,-6,A,America/Chicago,airport,OurAirports
BTS,1745.0,M. R. Štefánik Airport,Bratislava,Slovakia,LZIB,48.17020034790039,17.212699890136722,436.0,1,E,Europe/Bratislava,airport,OurAirports
BTU,3262.0,Bintulu Airport,Bintulu,Malaysia,WBGB,3.1238501071900004,113.019996643,74.0,8,N,Asia/Kuala_Lumpur,airport,OurAirports
BTV,3711.0,Burlington International Airport,Burlington,United States,KBTV,44.471900939899996,-73.15329742429998,335.0,-5,A,America/New_York,airport,OurAirports
BUD,1489.0,Budapest Ferenc Liszt International Airport,Budapest,Hungary,LHBP,47.4369010925,19.2555999756,495.0,1,E,Europe/Budapest,airport,OurAirports
BUF,3820.0,Buffalo Niagara International Airport,Buffalo,United States,KBUF,42.94049835,-78.73220062,728.0,-5,A,America/New_York,airport,OurAirports
BUN,2712.0,Gerardo Tobar López Airport,Buenaventura,Colombia,SKBU,3.81963,-76.9898,48.0,-5,U,America/Bogota,airport,OurAirports
BUQ,1001.0,Joshua Mqabuko Nkomo International Airport,Bulawayo,Zimbabwe,FVBU,-20.01740074157715,28.617900848388672,4359.0,2,U,Africa/Harare,airport,OurAirports
BUR,3644.0,Bob Hope Airport,Burbank,United States,KBUR,34.200698852539055,-118.35900115966795,778.0,-8,A,America/Los_Angeles,airport,OurAirports
BUS,3971.0,Batumi International Airport,Batumi,Georgia,UGSB,41.610298156700004,41.5997009277,105.0,4,N,Asia/Tbilisi,airport,OurAirports
BVB,2533.0,Atlas Brasil Cantanhede Airport,Boa Vista,Brazil,SBBV,2.8413889408099995,-60.69222259520001,276.0,-4,S,America/Boa_Vista,airport,OurAirports
BVC,1103.0,Rabil Airport,Boa Vista,Cape Verde,GVBA,16.136499404907227,-22.888900756835934,69.0,-1,U,Atlantic/Cape_Verde,airport,OurAirports
BVE,1278.0,Toul Rosières Air Base,Brive,France,LFSL,48.780001,5.980003,936.0,1,E,Europe/Paris,airport,OurAirports
BWI,3849.0,Baltimore/Washington International Thurgood Marshall Airport,Baltimore,United States,KBWI,39.17539978,-76.66829681,146.0,-5,A,America/New_York,airport,OurAirports
BWK,4160.0,Bol Airport,Brac,Croatia,LDSB,43.28570175170898,16.67970085144043,1776.0,1,E,Europe/Zagreb,airport,OurAirports
BWN,3272.0,Brunei International Airport,Bandar Seri Begawan,Brunei,WBSB,4.944200038909912,114.9280014038086,73.0,8,U,Asia/Brunei,airport,OurAirports
BZE,1957.0,Philip S. W. Goldson International Airport,Belize City,Belize,MZBZ,17.539100646972653,-88.30819702148438,15.0,-6,U,America/Belize,airport,OurAirports
BZN,4020.0,Gallatin Field,Bozeman,United States,KBZN,45.77750015,-111.15299990000001,4473.0,-7,A,America/Denver,airport,OurAirports
BZO,1536.0,Bolzano Airport,Bolzano,Italy,LIPB,46.460201,11.3264,789.0,1,E,Europe/Rome,airport,OurAirports
BZV,883.0,Maya-Maya Airport,Brazzaville,Congo (Brazzaville),FCBB,-4.251699924468993,15.253000259399414,1048.0,1,N,Africa/Brazzaville,airport,OurAirports
CAE,3561.0,Columbia Metropolitan Airport,Columbia,United States,KCAE,33.93880081176758,-81.11949920654297,236.0,-5,A,America/New_York,airport,OurAirports
CAG,1519.0,Cagliari Elmas Airport,Cagliari,Italy,LIEE,39.251499,9.05428,13.0,1,E,Europe/Rome,airport,OurAirports
CAH,4156.0,Cà Mau Airport,Ca Mau,Vietnam,VVCM,9.177667,105.177778,6.0,7,U,Asia/Saigon,airport,OurAirports
CAI,1128.0,Cairo International Airport,Cairo,Egypt,HECA,30.12190055847168,31.40559959411621,382.0,2,U,Africa/Cairo,airport,OurAirports
CAK,4112.0,Akron Canton Regional Airport,Akron,United States,KCAK,40.916099548339844,-81.44219970703125,1228.0,-5,A,America/New_York,airport,OurAirports
CAN,3370.0,Guangzhou Baiyun International Airport,Guangzhou,China,ZGGG,23.39240074157715,113.29900360107422,50.0,8,U,Asia/Shanghai,airport,OurAirports
CAY,2774.0,Cayenne-Rochambeau Airport,Cayenne,French Guiana,SOCA,4.819809913639999,-52.360401153599994,26.0,-3,U,America/Cayenne,airport,OurAirports
CBR,3355.0,Canberra International Airport,Canberra,Australia,YSCB,-35.30690002441406,149.19500732421875,1886.0,10,O,Australia/Sydney,airport,OurAirports
CCC,1901.0,Jardines Del Rey Airport,Cunagua,Cuba,MUCC,22.4610004425,-78.32839965820001,13.0,-5,U,America/Havana,airport,OurAirports
CCJ,3137.0,Calicut International Airport,Calicut,India,VOCL,11.1367998123,75.95529937740001,342.0,5.5,N,Asia/Calcutta,airport,OurAirports
CCS,2851.0,Simón Bolívar International Airport,Caracas,Venezuela,SVMI,10.6031169891,-66.9905853271,235.0,-4,U,America/Caracas,airport,OurAirports
CCU,3043.0,Netaji Subhash Chandra Bose International Airport,Kolkata,India,VECC,22.654699325561523,88.44670104980469,16.0,5.5,N,Asia/Calcutta,airport,OurAirports
CDC,3824.0,Cedar City Regional Airport,Cedar City,United States,KCDC,37.70100021362305,-113.0989990234375,5622.0,-7,A,America/Denver,airport,OurAirports
CDG,1382.0,Charles de Gaulle International Airport,Paris,France,LFPG,49.0127983093,2.54999995232,392.0,1,E,Europe/Paris,airport,OurAirports
CDR,7066.0,Chadron Municipal Airport,Chadron,United States,KCDR,42.837600708000004,-103.095001221,3297.0,-7,A,America/Denver,airport,OurAirports
CEB,4206.0,Mactan Cebu International Airport,Cebu,Philippines,RPVM,10.307499885559,123.97899627686,31.0,8,N,Asia/Manila,airport,OurAirports
CEC,5727.0,Jack Mc Namara Field Airport,Crescent City,United States,KCEC,41.78020096,-124.23699950000001,61.0,-8,A,America/Los_Angeles,airport,OurAirports
CEI,3932.0,Chiang Rai International Airport,Chiang Rai,Thailand,VTCT,19.952299118,99.8828964233,1280.0,7,U,Asia/Bangkok,airport,OurAirports
CEK,2968.0,Chelyabinsk Balandino Airport,Chelyabinsk,Russia,USCC,55.305801,61.5033,769.0,5,N,Asia/Yekaterinburg,airport,OurAirports
CEN,1794.0,Ciudad Obregón International Airport,Ciudad Obregon,Mexico,MMCN,27.39259910583496,-109.83300018310548,243.0,-7,S,America/Hermosillo,airport,OurAirports
CFE,1330.0,Clermont-Ferrand Auvergne Airport,Clermont-Ferrand,France,LFLC,45.786701202399996,3.1691699027999998,1090.0,1,E,Europe/Paris,airport,OurAirports
CFS,3356.0,Coffs Harbour Airport,Coff's Harbour,Australia,YSCH,-30.320600509600002,153.115997314,18.0,10,O,Australia/Sydney,airport,OurAirports
CFU,1460.0,Ioannis Kapodistrias International Airport,Kerkyra/corfu,Greece,LGKR,39.601898193359375,19.911699295043945,6.0,2,E,Europe/Athens,airport,OurAirports
CGB,2548.0,Marechal Rondon Airport,Cuiaba,Brazil,SBCY,-15.6528997421,-56.1166992188,617.0,-4,S,America/Campo_Grande,airport,OurAirports
CGD,6352.0,Changde Airport,Changde,China,ZGCD,28.9188995361,111.63999939,128.0,8,U,Asia/Shanghai,airport,OurAirports
CGH,2618.0,Congonhas Airport,Sao Paulo,Brazil,SBSP,-23.626110076904297,-46.65638732910156,2631.0,-3,S,America/Sao_Paulo,airport,OurAirports
CGK,3275.0,Soekarno-Hatta International Airport,Jakarta,Indonesia,WIII,-6.1255698204,106.65599823,34.0,7,N,Asia/Jakarta,airport,OurAirports
CGN,344.0,Cologne Bonn Airport,Cologne,Germany,EDDK,50.865898132299996,7.1427397728,302.0,1,E,Europe/Berlin,airport,OurAirports
CGO,3375.0,Zhengzhou Xinzheng International Airport,Zhengzhou,China,ZHCC,34.519699096699995,113.84100341799999,495.0,8,U,Asia/Shanghai,airport,OurAirports
CGQ,4380.0,Longjia Airport,Changchun,China,ZYCC,43.9962005615,125.684997559,706.0,8,U,Asia/Shanghai,airport,OurAirports
CGR,2538.0,Campo Grande Airport,Campo Grande,Brazil,SBCG,-20.468700408900002,-54.6725006104,1833.0,-4,S,America/Campo_Grande,airport,OurAirports
CHA,3578.0,Lovell Field,Chattanooga,United States,KCHA,35.03530120849609,-85.20379638671875,683.0,-5,A,America/New_York,airport,OurAirports
CHC,2009.0,Christchurch International Airport,Christchurch,New Zealand,NZCH,-43.48939895629883,172.53199768066406,123.0,12,Z,Pacific/Auckland,airport,OurAirports
CHG,6772.0,Chaoyang Airport,Chaoyang,China,ZYCY,41.538101,120.434998,568.0,8,U,Asia/Shanghai,airport,OurAirports
CHO,4015.0,Charlottesville Albemarle Airport,Charlottesville VA,United States,KCHO,38.13859939575195,-78.4529037475586,639.0,-5,A,America/New_York,airport,OurAirports
CHQ,1474.0,Chania International Airport,Chania,Greece,LGSA,35.531700134277344,24.149700164794922,490.0,2,E,Europe/Athens,airport,OurAirports
CHS,3806.0,Charleston Air Force Base-International Airport,Charleston,United States,KCHS,32.89860153,-80.04049683,46.0,-5,A,America/New_York,airport,OurAirports
CIC,3710.0,Chico Municipal Airport,Chico,United States,KCIC,39.79539871,-121.8580017,240.0,-8,A,America/Los_Angeles,airport,OurAirports
CID,4043.0,The Eastern Iowa Airport,Cedar Rapids,United States,KCID,41.88470077514648,-91.71080017089844,869.0,-6,A,America/Chicago,airport,OurAirports
CIF,6342.0,Chifeng Airport,Chifeng,China,ZBCF,42.23500061035156,118.90799713134766,0.0,8,U,Asia/Shanghai,airport,OurAirports
CIH,6343.0,Changzhi Airport,Changzhi,China,ZBCZ,36.247501,113.125999,0.0,8,U,Asia/Shanghai,airport,OurAirports
CIT,2914.0,Shymkent Airport,Chimkent,Kazakhstan,UAII,42.364200592041016,69.47889709472656,1385.0,6,U,Asia/Qyzylorda,airport,OurAirports
CIU,5729.0,Chippewa County International Airport,Sault Ste Marie,United States,KCIU,46.25080108642578,-84.47239685058594,800.0,-5,A,America/New_York,airport,OurAirports
CIY,9327.0,Comiso Airport,Comiso,Italy,LICB,36.994601,14.607182,623.0,1,E,Europe/Rome,airport,OurAirports
CJB,3135.0,Coimbatore International Airport,Coimbatore,India,VOCB,11.029999733,77.0434036255,1324.0,5.5,N,Asia/Calcutta,airport,OurAirports
CJJ,6008.0,Cheongju International Airport,Chongju,South Korea,RKTU,36.7165985107,127.499000549,191.0,9,U,Asia/Seoul,airport,OurAirports
CJS,1796.0,Abraham González International Airport,Ciudad Juarez,Mexico,MMCS,31.63610076904297,-106.4290008544922,3904.0,-7,S,America/Mazatlan,airport,OurAirports
CJU,2370.0,Jeju International Airport,Cheju,South Korea,RKPC,33.51129913330078,126.49299621582031,118.0,9,U,Asia/Seoul,airport,OurAirports
CKB,5730.0,North Central West Virginia Airport,Clarksburg,United States,KCKB,39.2966003418,-80.2281036377,1217.0,-5,A,America/New_York,airport,OurAirports
CKG,3393.0,Chongqing Jiangbei International Airport,Chongqing,China,ZUCK,29.719200134277344,106.64199829101562,1365.0,8,U,Asia/Shanghai,airport,OurAirports
CKY,4162.0,Conakry International Airport,Conakry,Guinea,GUCY,9.576889999999999,-13.612,72.0,0,N,Africa/Conakry,airport,OurAirports
CKZ,6781.0,Çanakkale Airport,Canakkale,Turkey,LTBH,40.1376991272,26.4267997742,23.0,3,E,Europe/Istanbul,airport,OurAirports
CLD,4088.0,Mc Clellan-Palomar Airport,Carlsbad,United States,KCRQ,33.12829971,-117.27999879999999,331.0,-8,A,America/Los_Angeles,airport,OurAirports
CLE,3486.0,Cleveland Hopkins International Airport,Cleveland,United States,KCLE,41.411701202399996,-81.8498001099,791.0,-5,A,America/New_York,airport,OurAirports
CLJ,1652.0,Cluj-Napoca International Airport,Cluj-napoca,Romania,LRCL,46.78519821166992,23.686199188232425,1036.0,2,E,Europe/Bucharest,airport,OurAirports
CLL,3715.0,Easterwood Field,College Station,United States,KCLL,30.58860016,-96.36380005,320.0,-6,A,America/Chicago,airport,OurAirports
CLO,2715.0,Alfonso Bonilla Aragon International Airport,Cali,Colombia,SKCL,3.54322,-76.3816,3162.0,-5,U,America/Bogota,airport,OurAirports
CLQ,1808.0,Licenciado Miguel de la Madrid Airport,Colima,Mexico,MMIA,19.2770004272,-103.577003479,2467.0,-6,S,America/Mexico_City,airport,OurAirports
CLT,3876.0,Charlotte Douglas International Airport,Charlotte,United States,KCLT,35.2140007019043,-80.94309997558594,748.0,-5,A,America/New_York,airport,OurAirports
CLY,1322.0,Calvi-Sainte-Catherine Airport,Calvi,France,LFKC,42.52444439999999,8.793055599999999,209.0,1,E,Europe/Paris,airport,OurAirports
CMB,3024.0,Bandaranaike International Colombo Airport,Colombo,Sri Lanka,VCBI,7.180759906768799,79.88410186767578,30.0,5.5,U,Asia/Colombo,airport,OurAirports
CME,1789.0,Ciudad del Carmen International Airport,Ciudad Del Carmen,Mexico,MMCE,18.65369987487793,-91.79900360107422,10.0,-6,S,America/Mexico_City,airport,OurAirports
CMH,3759.0,Port Columbus International Airport,Columbus,United States,KCMH,39.99800109863281,-82.89189910888672,815.0,-5,A,America/New_York,airport,OurAirports
CMI,4049.0,University of Illinois Willard Airport,Champaign,United States,KCMI,40.03919983,-88.27809906,755.0,-6,A,America/Chicago,airport,OurAirports
CMN,1074.0,Mohammed V International Airport,Casablanca,Morocco,GMMN,33.36750030517578,-7.589970111846924,656.0,0,N,Africa/Casablanca,airport,OurAirports
CMX,5732.0,Houghton County Memorial Airport,Hancock,United States,KCMX,47.16839981079102,-88.48909759521484,1095.0,-5,A,America/New_York,airport,OurAirports
CND,1651.0,Mihail Kogălniceanu International Airport,Constanta,Romania,LRCK,44.36220169067383,28.488300323486328,353.0,2,E,Europe/Bucharest,airport,OurAirports
CNF,2537.0,Tancredo Neves International Airport,Belo Horizonte,Brazil,SBCF,-19.62444305419922,-43.97194290161133,2715.0,-3,S,America/Sao_Paulo,airport,OurAirports
CNJ,6255.0,Cloncurry Airport,Cloncurry,Australia,YCCY,-20.6686000824,140.503997803,616.0,10,O,Australia/Brisbane,airport,OurAirports
CNS,3322.0,Cairns International Airport,Cairns,Australia,YBCS,-16.885799408,145.755004883,10.0,10,N,Australia/Brisbane,airport,OurAirports
CNX,3931.0,Chiang Mai International Airport,Chiang Mai,Thailand,VTCC,18.7667999268,98.962600708,1036.0,7,U,Asia/Bangkok,airport,OurAirports
CNY,7074.0,Canyonlands Field,Moab,United States,KCNY,38.75500107,-109.7549973,4557.0,-7,A,America/Denver,airport,OurAirports
COD,4344.0,Yellowstone Regional Airport,Cody,United States,KCOD,44.520198822,-109.024002075,5102.0,-7,A,America/Denver,airport,OurAirports
COK,3136.0,Cochin International Airport,Kochi,India,VOCI,10.1520004272,76.4019012451,30.0,5.5,N,Asia/Calcutta,airport,OurAirports
COO,245.0,Cadjehoun Airport,Cotonou,Benin,DBBB,6.357230186462402,2.384350061416626,19.0,1,N,Africa/Porto-Novo,airport,OurAirports
COR,2443.0,Ingeniero Ambrosio Taravella Airport,Cordoba,Argentina,SACO,-31.323600769000002,-64.2080001831,1604.0,-3,N,America/Cordoba,airport,OurAirports
COS,3819.0,City of Colorado Springs Municipal Airport,Colorado Springs,United States,KCOS,38.805801391602,-104.70099639893,6187.0,-7,A,America/Denver,airport,OurAirports
COU,3719.0,Columbia Regional Airport,Columbia,United States,KCOU,38.81809997558594,-92.21959686279295,889.0,-6,A,America/Chicago,airport,OurAirports
CPC,2517.0,Aviador C. Campos Airport,San Martin Des Andes,Argentina,SAZY,-40.0754013062,-71.13729858399999,2569.0,-3,N,America/Argentina/Salta,airport,OurAirports
CPE,1795.0,Ingeniero Alberto Acuña Ongay International Airport,Campeche,Mexico,MMCP,19.816799163800003,-90.50029754639999,34.0,-6,S,America/Mexico_City,airport,OurAirports
CPH,609.0,Copenhagen Kastrup Airport,Copenhagen,Denmark,EKCH,55.617900848389,12.656000137328999,17.0,1,E,Europe/Copenhagen,airport,OurAirports
CPR,3872.0,Casper-Natrona County International Airport,Casper,United States,KCPR,42.90800095,-106.4639969,5350.0,-7,A,America/Denver,airport,OurAirports
CPT,797.0,Cape Town International Airport,Cape Town,South Africa,FACT,-33.9648017883,18.6016998291,151.0,2,U,Africa/Johannesburg,airport,OurAirports
CRD,2487.0,General E. Mosconi Airport,Comodoro Rivadavia,Argentina,SAVC,-45.7853,-67.4655,189.0,-3,N,America/Catamarca,airport,OurAirports
CRK,4140.0,Clark International Airport,Angeles City,Philippines,RPLC,15.1859998703,120.559997559,484.0,8,N,Asia/Manila,airport,OurAirports
CRP,3744.0,Corpus Christi International Airport,Corpus Christi,United States,KCRP,27.77039909362793,-97.5011978149414,44.0,-6,A,America/Chicago,airport,OurAirports
CRW,4285.0,Yeager Airport,Charleston,United States,KCRW,38.37310028076172,-81.59320068359375,981.0,-5,A,America/New_York,airport,OurAirports
CSG,4255.0,Columbus Metropolitan Airport,Columbus,United States,KCSG,32.516300201416016,-84.93890380859375,397.0,-5,A,America/New_York,airport,OurAirports
CSX,3371.0,Changsha Huanghua International Airport,Changcha,China,ZGHA,28.189199447600004,113.220001221,217.0,8,U,Asia/Shanghai,airport,OurAirports
CTA,1509.0,Catania-Fontanarossa Airport,Catania,Italy,LICC,37.466801000000004,15.0664,39.0,1,E,Europe/Rome,airport,OurAirports
CTC,2455.0,Catamarca Airport,Catamarca,Argentina,SANC,-28.5956001282,-65.751701355,1522.0,-3,N,America/Catamarca,airport,OurAirports
CTG,2714.0,Rafael Nuñez International Airport,Cartagena,Colombia,SKCG,10.4424,-75.513,4.0,-5,U,America/Bogota,airport,OurAirports
CTL,3323.0,Charleville Airport,Charlieville,Australia,YBCV,-26.4132995605,146.261993408,1003.0,10,O,Australia/Brisbane,airport,OurAirports
CTS,2287.0,New Chitose Airport,Sapporo,Japan,RJCC,42.77519989013672,141.69200134277344,82.0,9,U,Asia/Tokyo,airport,OurAirports
CTU,3395.0,Chengdu Shuangliu International Airport,Chengdu,China,ZUUU,30.578500747680664,103.9469985961914,1625.0,8,U,Asia/Shanghai,airport,OurAirports
CUC,2713.0,Camilo Daza International Airport,Cucuta,Colombia,SKCC,7.927569999999999,-72.5115,1096.0,-5,U,America/Bogota,airport,OurAirports
CUL,1792.0,Bachigualato Federal International Airport,Culiacan,Mexico,MMCL,24.764499664299997,-107.474998474,108.0,-7,S,America/Mazatlan,airport,OurAirports
CUN,1852.0,Cancún International Airport,Cancun,Mexico,MMUN,21.036500930800003,-86.8770980835,22.0,-5,S,America/Cancun,airport,OurAirports
CUR,2897.0,Hato International Airport,Willemstad,Netherlands Antilles,TNCC,12.1889,-68.959801,29.0,-4,U,America/Curacao,airport,OurAirports
CUU,1797.0,General Roberto Fierro Villalobos International Airport,Chihuahua,Mexico,MMCU,28.702899932900003,-105.96499633799999,4462.0,-7,S,America/Mazatlan,airport,OurAirports
CUZ,2812.0,Alejandro Velasco Astete International Airport,Cuzco,Peru,SPZO,-13.535699844400003,-71.9387969971,10860.0,-5,U,America/Lima,airport,OurAirports
CVG,3488.0,Cincinnati Northern Kentucky International Airport,Cincinnati,United States,KCVG,39.0488014221,-84.6678009033,896.0,-5,A,America/New_York,airport,OurAirports
CVM,1798.0,General Pedro Jose Mendez International Airport,Ciudad Victoria,Mexico,MMCV,23.7033004761,-98.9564971924,761.0,-6,S,America/Mexico_City,airport,OurAirports
CWA,4045.0,Central Wisconsin Airport,Wassau,United States,KCWA,44.7775993347,-89.6668014526,1277.0,-6,A,America/Chicago,airport,OurAirports
CWB,2545.0,Afonso Pena Airport,Curitiba,Brazil,SBCT,-25.5284996033,-49.175800323500006,2988.0,-3,S,America/Sao_Paulo,airport,OurAirports
CWL,488.0,Cardiff International Airport,Cardiff,United Kingdom,EGFF,51.39670181274414,-3.343329906463623,220.0,0,E,Europe/London,airport,OurAirports
CXI,2252.0,Cassidy International Airport,Kiritimati,Kiribati,PLCH,1.9861600399017332,-157.35000610351562,5.0,-12,U,\N,airport,OurAirports
CXR,6189.0,Cam Ranh Airport,Nha Trang,Vietnam,VVCR,11.99820041656494,109.21900177001952,40.0,7,U,Asia/Saigon,airport,OurAirports
CYS,3804.0,Cheyenne Regional Jerry Olson Field,Cheyenne,United States,KCYS,41.15570068,-104.81199649999999,6159.0,-7,A,America/Denver,airport,OurAirports
CZM,1800.0,Cozumel International Airport,Cozumel,Mexico,MMCZ,20.52239990234375,-86.92559814453125,15.0,-5,S,America/Cancun,airport,OurAirports
CZU,2717.0,Las Brujas Airport,Corozal,Colombia,SKCZ,9.33274,-75.2856,528.0,-5,U,America/Bogota,airport,OurAirports
CZX,4109.0,Changzhou Benniu Airport,Changzhou,China,ZSCG,31.919701,119.778999,0.0,8,U,Asia/Shanghai,airport,OurAirports
DAB,3950.0,Daytona Beach International Airport,Daytona Beach,United States,KDAB,29.179899,-81.058098,34.0,-5,A,America/New_York,airport,OurAirports
DAC,3076.0,Dhaka / Hazrat Shahjalal International Airport,Dhaka,Bangladesh,VGZR,23.843347,90.39778299999999,30.0,6,U,Asia/Dhaka,airport,OurAirports
DAD,3196.0,Da Nang International Airport,Danang,Vietnam,VVDN,16.043899536132812,108.1989974975586,33.0,7,U,Asia/Saigon,airport,OurAirports
DAL,3502.0,Dallas Love Field,Dallas,United States,KDAL,32.84709930419922,-96.85179901123048,487.0,-6,A,America/Chicago,airport,OurAirports
DAR,1177.0,Julius Nyerere International Airport,Dar Es Salaam,Tanzania,HTDA,-6.87810993195,39.202598571799996,182.0,3,U,Africa/Dar_es_Salaam,airport,OurAirports
DAT,6344.0,Datong Airport,Datong,China,ZBDT,40.060299,113.48200200000001,3442.0,8,U,Asia/Shanghai,airport,OurAirports
DAX,6397.0,Dachuan Airport,Dazhou,China,ZUDX,31.1302,107.4295,0.0,8,U,Asia/Shanghai,airport,OurAirports
DAY,3627.0,James M Cox Dayton International Airport,Dayton,United States,KDAY,39.90240097045898,-84.21939849853516,1009.0,-5,A,America/New_York,airport,OurAirports
DBO,3358.0,Dubbo City Regional Airport,Dubbo,Australia,YSDU,-32.2167015076,148.574996948,935.0,10,O,Australia/Sydney,airport,OurAirports
DBQ,4388.0,Dubuque Regional Airport,Dubuque IA,United States,KDBQ,42.40200043,-90.70950317,1077.0,-6,A,America/Chicago,airport,OurAirports
DBV,1200.0,Dubrovnik Airport,Dubrovnik,Croatia,LDDU,42.5614013671875,18.268199920654297,527.0,1,E,Europe/Zagreb,airport,OurAirports
DCA,3520.0,Ronald Reagan Washington National Airport,Washington,United States,KDCA,38.8521,-77.037697,15.0,-5,A,America/New_York,airport,OurAirports
DCN,9905.0,RAAF Base Curtin,Derby,Australia,YCIN,-17.5813999176,123.82800293,300.0,8,N,\N,airport,OurAirports
DCY,9310.0,Yading Daocheng,Daocheng,China,ZUDC,29.3231,100.0533,14472.0,8,N,Asia/Shanghai,unknown,User
DDC,5733.0,Dodge City Regional Airport,Dodge City,United States,KDDC,37.76340103149414,-99.9655990600586,2594.0,-6,A,America/Chicago,airport,OurAirports
DDG,6433.0,Dandong,Dandong,China,ZYDD,40.0255,124.2866,0.0,8,N,Asia/Shanghai,unknown,User
DED,3092.0,Dehradun Airport,Dehra Dun,India,VIDN,30.189699173,78.18029785159999,1831.0,5.5,N,Asia/Calcutta,airport,OurAirports
DEL,3093.0,Indira Gandhi International Airport,Delhi,India,VIDP,28.56649971008301,77.10310363769531,777.0,5.5,N,Asia/Calcutta,airport,OurAirports
DEN,3751.0,Denver International Airport,Denver,United States,KDEN,39.861698150635,-104.672996521,5431.0,-7,A,America/Denver,airport,OurAirports
DFW,3670.0,Dallas Fort Worth International Airport,Dallas-Fort Worth,United States,KDFW,32.896800994873054,-97.03800201416016,607.0,-6,A,America/Chicago,airport,OurAirports
DGO,1801.0,General Guadalupe Victoria International Airport,Durango,Mexico,MMDO,24.1242008209,-104.52799987799999,6104.0,-6,S,America/Mexico_City,airport,OurAirports
DHM,6760.0,Kangra Airport,Kangra,India,VIGG,32.16510009765625,76.26339721679688,2525.0,5.5,N,Asia/Calcutta,airport,OurAirports
DHN,3739.0,Dothan Regional Airport,Dothan,United States,KDHN,31.3213005065918,-85.44960021972656,401.0,-6,A,America/Chicago,airport,OurAirports
DIB,3057.0,Dibrugarh Airport,Mohanbari,India,VEMN,27.4839000702,95.01689910889999,362.0,5.5,N,Asia/Calcutta,airport,OurAirports
DIG,6375.0,Diqing Airport,Shangri-La,China,ZPDQ,27.7936,99.6772,10761.0,8,U,Asia/Shanghai,airport,OurAirports
DIK,7064.0,Dickinson Theodore Roosevelt Regional Airport,Dickinson,United States,KDIK,46.7974014282,-102.80200195299999,2592.0,-7,A,America/Denver,airport,OurAirports
DIL,3310.0,Presidente Nicolau Lobato International Airport,Dili,East Timor,WPDL,-8.54640007019,125.52600097700001,154.0,9,U,Asia/Dili,airport,OurAirports
DIN,6192.0,Dien Bien Phu Airport,Dienbienphu,Vietnam,VVDB,21.3974990845,103.008003235,1611.0,7,U,Asia/Saigon,airport,OurAirports
DIR,1112.0,Aba Tenna Dejazmach Yilma International Airport,Dire Dawa,Ethiopia,HADR,9.624699592590332,41.85419845581055,3827.0,3,U,Africa/Addis_Ababa,airport,OurAirports
DIW,7562.0,Dickwella Airport,Dickwella,Sri Lanka,\N,5.966667,80.68333299999999,100.0,5.5,U,Asia/Colombo,airport,User
DIY,1722.0,Diyarbakir Airport,Diyabakir,Turkey,LTCC,37.893901825,40.201000213600004,2251.0,3,E,Europe/Istanbul,airport,OurAirports
DJB,3287.0,Sultan Thaha Airport,Jambi,Indonesia,WIPA,-1.6380200386047363,103.6439971923828,82.0,7,N,Asia/Jakarta,airport,OurAirports
DJJ,3244.0,Sentani Airport,Jayapura,Indonesia,WAJJ,-2.5769500732421875,140.51600646972656,289.0,9,N,Asia/Jayapura,airport,OurAirports
DKR,1084.0,Léopold Sédar Senghor International Airport,Dakar,Senegal,GOOY,14.739700317382812,-17.49020004272461,85.0,0,N,Africa/Dakar,airport,OurAirports
DLA,897.0,Douala International Airport,Douala,Cameroon,FKKD,4.0060801506,9.71947956085,33.0,1,N,Africa/Douala,airport,OurAirports
DLC,3404.0,Zhoushuizi Airport,Dalian,China,ZYTL,38.9656982421875,121.53900146484376,107.0,8,U,Asia/Shanghai,airport,OurAirports
DLH,3598.0,Duluth International Airport,Duluth,United States,KDLH,46.8420982361,-92.19360351559999,1428.0,-6,A,America/Chicago,airport,OurAirports
DLI,4153.0,Lien Khuong Airport,Dalat,Vietnam,VVDL,11.75,108.36699676513672,3156.0,7,U,Asia/Saigon,airport,OurAirports
DLM,1715.0,Dalaman International Airport,Dalaman,Turkey,LTBS,36.7131004333,28.792499542199998,20.0,3,E,Europe/Istanbul,airport,OurAirports
DLU,4054.0,Dali Airport,Dali,China,ZPDL,25.649401,100.319,7050.0,8,U,Asia/Shanghai,airport,OurAirports
DME,4029.0,Domodedovo International Airport,Moscow,Russia,UUDD,55.40879821777344,37.90629959106445,588.0,3,N,Europe/Moscow,airport,OurAirports
DMM,2064.0,King Fahd International Airport,Dammam,Saudi Arabia,OEDF,26.471200942993164,49.79790115356445,72.0,3,U,Asia/Riyadh,airport,OurAirports
DMU,6174.0,Dimapur Airport,Dimapur,India,VEMR,25.883899688699998,93.77110290530001,487.0,5.5,N,Asia/Calcutta,airport,OurAirports
DNH,4308.0,Dunhuang Airport,Dunhuang,China,ZLDH,40.16109848022461,94.80919647216795,0.0,8,U,Asia/Shanghai,airport,OurAirports
DNK,2941.0,Dnipropetrovsk International Airport,Dnepropetrovsk,Ukraine,UKDD,48.357200622558594,35.100601196289055,481.0,2,E,Europe/Kiev,airport,OurAirports
DNZ,1699.0,Çardak Airport,Denizli,Turkey,LTAY,37.7855987549,29.701299667399997,2795.0,3,E,Europe/Istanbul,airport,OurAirports
DOH,11051.0,Hamad Intl,Doha,Qatar,OTHH,25.273056,51.608056,35.0,3,N,\N,unknown,User
DOK,2940.0,Donetsk International Airport,Donetsk,Ukraine,UKCC,48.07360076904297,37.73970031738281,791.0,2,E,Europe/Kiev,airport,OurAirports
DOL,1408.0,Deauville-Saint-Gatien Airport,Deauville,France,LFRG,49.3652992249,0.154305994511,479.0,1,E,Europe/Paris,airport,OurAirports
DOM,2877.0,Melville Hall Airport,Dominica,Dominica,TDPD,15.54699993133545,-61.29999923706055,73.0,-4,U,America/Dominica,airport,OurAirports
DPO,6264.0,Devonport Airport,Devonport,Australia,YDPO,-41.169700622600004,146.429992676,33.0,10,O,Australia/Melbourne,airport,OurAirports
DPS,3940.0,Ngurah Rai (Bali) International Airport,Denpasar,Indonesia,WADD,-8.7481698989868,115.16699981689,14.0,8,N,Asia/Makassar,airport,OurAirports
DQA,9845.0,Daqing Sartu Airport,Daqing,China,ZYDQ,46.587222,125.228333,489.0,8,N,Asia/Shanghai,airport,User
DRO,3713.0,Durango La Plata County Airport,Durango,United States,KDRO,37.1515007019,-107.75399780299999,6685.0,-7,A,America/Denver,airport,OurAirports
DRS,338.0,Dresden Airport,Dresden,Germany,EDDC,51.1328010559082,13.767200469970705,755.0,1,E,Europe/Berlin,airport,OurAirports
DRW,3999.0,Darwin International Airport,Darwin,Australia,YPDN,-12.41469955444336,130.87699890136722,103.0,9.5,N,Australia/Darwin,airport,OurAirports
DSM,3729.0,Des Moines International Airport,Des Moines,United States,KDSM,41.53400039672852,-93.66310119628906,958.0,-6,A,America/Chicago,airport,OurAirports
DSN,6434.0,Ordos Ejin Horo Airport,Dongsheng,China,ZBDS,39.49,109.861388889,4557.0,8,N,Asia/Shanghai,airport,OurAirports
DTM,373.0,Dortmund Airport,Dortmund,Germany,EDLW,51.518299102799986,7.61223983765,425.0,1,E,Europe/Berlin,airport,OurAirports
DTW,3645.0,Detroit Metropolitan Wayne County Airport,Detroit,United States,KDTW,42.212398529052734,-83.35340118408203,645.0,-5,A,America/New_York,airport,OurAirports
DUB,599.0,Dublin Airport,Dublin,Ireland,EIDW,53.42129898071289,-6.2700700759887695,242.0,0,E,Europe/Dublin,airport,OurAirports
DUD,2011.0,Dunedin Airport,Dunedin,New Zealand,NZDN,-45.9281005859375,170.197998046875,4.0,12,Z,Pacific/Auckland,airport,OurAirports
DUJ,5734.0,DuBois Regional Airport,Du Bois,United States,KDUJ,41.17829895,-78.8986969,1817.0,-5,A,America/New_York,airport,OurAirports
DUR,799.0,King Shaka International Airport,Durban,South Africa,FALE,-29.6144444444,31.119722222199997,295.0,2,U,Africa/Johannesburg,airport,OurAirports
DUS,345.0,Düsseldorf International Airport,Duesseldorf,Germany,EDDL,51.28950119018555,6.766779899597168,147.0,1,E,Europe/Berlin,airport,OurAirports
DVO,4090.0,Francisco Bangoy International Airport,Davao,Philippines,RPMD,7.1255202293396,125.64600372314452,96.0,8,N,Asia/Manila,airport,OurAirports
DWC,8076.0,Al Maktoum International Airport,Dubai,United Arab Emirates,OMDW,24.896356,55.161389,114.0,4,U,Asia/Dubai,airport,OurAirports
DWD,5924.0,Dawadmi Domestic Airport,Dawadmi,Saudi Arabia,OEDW,24.5,44.400001525878906,3429.0,3,U,Asia/Riyadh,airport,OurAirports
DXB,2188.0,Dubai International Airport,Dubai,United Arab Emirates,OMDB,25.252799987800003,55.3643989563,62.0,4,U,Asia/Dubai,airport,OurAirports
DYG,6353.0,Dayong Airport,Dayong,China,ZGDY,29.1028,110.443001,692.0,8,U,Asia/Shanghai,airport,OurAirports
DYU,2979.0,Dushanbe Airport,Dushanbe,Tajikistan,UTDD,38.543300628699996,68.8249969482,2575.0,5,U,Asia/Dushanbe,airport,OurAirports
DZA,915.0,Dzaoudzi Pamandzi International Airport,Dzaoudzi,Mayotte,FMCZ,-12.804699897766113,45.28110122680664,23.0,3,U,Indian/Mayotte,airport,OurAirports
EAM,2075.0,Nejran Airport,Nejran,Saudi Arabia,OENG,17.611400604248047,44.4192008972168,3982.0,3,U,Asia/Riyadh,airport,OurAirports
EAS,1242.0,San Sebastian Airport,San Sebastian,Spain,LESO,43.35649871826172,-1.7906099557876587,16.0,1,E,Europe/Madrid,airport,OurAirports
EAU,5735.0,Chippewa Valley Regional Airport,Eau Claire,United States,KEAU,44.86579895019531,-91.48429870605469,913.0,-6,A,America/Chicago,airport,OurAirports
EBB,1187.0,Entebbe International Airport,Entebbe,Uganda,HUEN,0.04238599911332129,32.44350051879883,3782.0,3,U,Africa/Kampala,airport,OurAirports
EBL,3989.0,Erbil International Airport,Erbil,Iraq,ORER,36.23759841918945,43.96319961547852,1341.0,3,U,Asia/Baghdad,airport,OurAirports
EBU,1350.0,Saint-Étienne-Bouthéon Airport,St-Etienne,France,LFMH,45.54059982299805,4.2963900566101065,1325.0,1,E,Europe/Paris,airport,OurAirports
ECN,5780.0,Ercan International Airport,Nicosia,Cyprus,LCEN,35.15470123291016,33.49610137939453,404.0,2,E,Asia/Nicosia,airport,OurAirports
ECP,7669.0,Northwest Florida Beaches International Airport,Panama City,United States,KECP,30.357105999999998,-85.79541400000001,69.0,-6,A,America/Chicago,airport,OurAirports
EDI,535.0,Edinburgh Airport,Edinburgh,United Kingdom,EGPH,55.95000076293945,-3.372499942779541,135.0,0,E,Europe/London,airport,OurAirports
EDL,1138.0,Eldoret International Airport,Eldoret,Kenya,HKEL,0.4044579863548279,35.23889923095703,6941.0,3,U,Africa/Nairobi,airport,OurAirports
EFL,1455.0,Kefallinia Airport,Keffallinia,Greece,LGKF,38.12009811401367,20.5004997253418,59.0,2,E,Europe/Athens,airport,OurAirports
EGC,1265.0,Bergerac-Roumanière Airport,Bergerac,France,LFBE,44.82529830932617,0.5186110138893127,171.0,1,E,Europe/Paris,airport,OurAirports
EGE,4250.0,Eagle County Regional Airport,Vail,United States,KEGE,39.64260101,-106.9179993,6548.0,-7,A,America/Denver,airport,OurAirports
EIS,2903.0,Terrance B. Lettsome International Airport,Tortola,British Virgin Islands,TUPJ,18.444799423217773,-64.54299926757811,15.0,-4,U,America/Tortola,airport,OurAirports
EJA,2718.0,Yariguíes Airport,Barrancabermeja,Colombia,SKEJ,7.02433,-73.8068,412.0,-5,U,America/Bogota,airport,OurAirports
EJH,2095.0,Al Wajh Domestic Airport,Wejh,Saudi Arabia,OEWJ,26.19860076904297,36.47639846801758,66.0,3,U,Asia/Riyadh,airport,OurAirports
EKO,5736.0,Elko Regional Airport,Elko,United States,KEKO,40.82490158081055,-115.79199981689452,5140.0,-8,A,America/Los_Angeles,airport,OurAirports
ELH,1943.0,North Eleuthera Airport,North Eleuthera,Bahamas,MYEH,25.474899291999996,-76.6835021973,13.0,-5,U,America/Nassau,airport,OurAirports
ELM,3946.0,Elmira Corning Regional Airport,Elmira,United States,KELM,42.1599006652832,-76.8916015625,954.0,-5,A,America/New_York,airport,OurAirports
ELP,3559.0,El Paso International Airport,El Paso,United States,KELP,31.80719948,-106.37799840000002,3959.0,-7,A,America/Denver,airport,OurAirports
ELQ,2067.0,Gassim Airport,Gassim,Saudi Arabia,OEGS,26.30279922485352,43.77439880371094,2126.0,3,U,Asia/Riyadh,airport,OurAirports
ELS,800.0,Ben Schoeman Airport,East London,South Africa,FAEL,-33.0355987549,27.825899124099998,435.0,2,U,Africa/Johannesburg,airport,OurAirports
EMD,3990.0,Emerald Airport,Emerald,Australia,YEML,-23.5674991608,148.179000854,624.0,10,O,Australia/Brisbane,airport,OurAirports
ENE,3914.0,Ende (H Hasan Aroeboesman) Airport,Ende,Indonesia,WATE,-8.8492898941,121.66100311299999,49.0,8,N,Asia/Makassar,airport,OurAirports
ENH,6358.0,Enshi Airport,Enshi,China,ZHES,30.3202991486,109.48500061,1605.0,8,U,Asia/Shanghai,airport,OurAirports
ENU,264.0,Akanu Ibiam International Airport,Enugu,Nigeria,DNEN,6.4742698669433585,7.561960220336914,466.0,1,N,Africa/Lagos,airport,OurAirports
ENY,6367.0,Yan'an Ershilipu Airport,Yan'an,China,ZLYA,36.636902,109.554001,3100.0,8,U,Asia/Shanghai,airport,OurAirports
EOH,2729.0,Enrique Olaya Herrera Airport,Medellin,Colombia,SKMD,6.220549,-75.590582,4949.0,-5,U,America/Bogota,airport,OurAirports
EPR,6266.0,Esperance Airport,Esperance,Australia,YESP,-33.684399,121.822998,470.0,8,O,Australia/Perth,airport,OurAirports
EQS,2488.0,Brigadier Antonio Parodi Airport,Esquel,Argentina,SAVE,-42.908000946,-71.139503479,2621.0,-3,N,America/Catamarca,airport,OurAirports
ERC,1723.0,Erzincan Airport,Erzincan,Turkey,LTCD,39.7102012634,39.5270004272,3783.0,3,E,Europe/Istanbul,airport,OurAirports
ERI,4276.0,Erie International Tom Ridge Field,Erie,United States,KERI,42.0831270134,-80.1738667488,732.0,-5,A,America/New_York,airport,OurAirports
ERZ,1724.0,Erzurum International Airport,Erzurum,Turkey,LTCE,39.9565010071,41.17020034789999,5763.0,3,E,Europe/Istanbul,airport,OurAirports
ESB,1682.0,Esenboğa International Airport,Ankara,Turkey,LTAC,40.128101348899996,32.995098114,3125.0,3,E,Europe/Istanbul,airport,OurAirports
ESC,6800.0,Delta County Airport,Escanaba,United States,KESC,45.7226982117,-87.0936965942,609.0,-5,A,America/New_York,airport,OurAirports
EUG,4099.0,Mahlon Sweet Field,Eugene,United States,KEUG,44.12459945678711,-123.21199798583984,374.0,-8,A,America/Los_Angeles,airport,OurAirports
EVE,641.0,"Harstad/Narvik Airport, Evenes",Harstad/Narvik,Norway,ENEV,68.491302490234,16.678100585938,84.0,1,E,Europe/Oslo,airport,OurAirports
EVN,3964.0,Zvartnots International Airport,Yerevan,Armenia,UDYZ,40.1473007202,44.3959007263,2838.0,4,E,Asia/Yerevan,airport,OurAirports
EVV,4018.0,Evansville Regional Airport,Evansville,United States,KEVV,38.0369987488,-87.53240203860001,418.0,-6,A,America/Chicago,airport,OurAirports
EWN,3730.0,Coastal Carolina Regional Airport,New Bern,United States,KEWN,35.0730018616,-77.04290008539998,18.0,-5,A,America/New_York,airport,OurAirports
EWR,3494.0,Newark Liberty International Airport,Newark,United States,KEWR,40.69250106811523,-74.168701171875,18.0,-5,A,America/New_York,airport,OurAirports
EXT,552.0,Exeter International Airport,Exeter,United Kingdom,EGTE,50.73440170288086,-3.4138898849487305,102.0,0,E,Europe/London,airport,OurAirports
EYP,6055.0,El Yopal Airport,Yopal,Colombia,SKYP,5.31911,-72.384,1028.0,-5,U,America/Bogota,airport,OurAirports
EYW,3875.0,Key West International Airport,Key West,United States,KEYW,24.556100845336914,-81.75959777832031,3.0,-5,A,America/New_York,airport,OurAirports
EZE,3988.0,Ministro Pistarini International Airport,Buenos Aires,Argentina,SAEZ,-34.8222,-58.5358,67.0,-3,N,America/Buenos_Aires,airport,OurAirports
EZS,1721.0,Elazığ Airport,Elazig,Turkey,LTCA,38.606899261500004,39.291400909400004,2927.0,3,E,Europe/Istanbul,airport,OurAirports
FAO,1626.0,Faro Airport,Faro,Portugal,LPFR,37.014400482199996,-7.965909957889999,24.0,0,E,Europe/Lisbon,airport,OurAirports
FAR,4292.0,Hector International Airport,Fargo,United States,KFAR,46.92070007324219,-96.81580352783205,902.0,-6,A,America/Chicago,airport,OurAirports
FAT,3687.0,Fresno Yosemite International Airport,Fresno,United States,KFAT,36.77619934082031,-119.71800231933594,336.0,-8,A,America/Los_Angeles,airport,OurAirports
FAY,5738.0,Fayetteville Regional Grannis Field,Fayetteville,United States,KFAY,34.991199493408196,-78.88030242919922,189.0,-5,A,America/New_York,airport,OurAirports
FBM,1038.0,Lubumbashi International Airport,Lubumashi,Congo (Kinshasa),FZQA,-11.5913000107,27.5308990479,4295.0,2,U,Africa/Lubumbashi,airport,OurAirports
FCA,4127.0,Glacier Park International Airport,Kalispell,United States,KGPI,48.31050109863281,-114.25599670410156,2977.0,-7,A,America/Denver,airport,OurAirports
FCO,1555.0,Leonardo da Vinci–Fiumicino Airport,Rome,Italy,LIRF,41.800277799999996,12.238888900000001,13.0,1,E,Europe/Rome,airport,OurAirports
FDF,2878.0,Martinique Aimé Césaire International Airport,Fort-de-france,Martinique,TFFF,14.590999603271484,-61.00320053100586,16.0,-4,U,America/Martinique,airport,OurAirports
FDH,382.0,Friedrichshafen Airport,Friedrichshafen,Germany,EDNY,47.671298980699994,9.511489868160002,1367.0,1,E,Europe/Berlin,airport,OurAirports
FEG,6149.0,Fergana International Airport,Fergana,Uzbekistan,UTKF,40.3587989807,71.7450027466,1980.0,5,U,Asia/Samarkand,airport,OurAirports
FEZ,1066.0,Saïss Airport,Fes,Morocco,GMFF,33.927299499499995,-4.977960109709999,1900.0,0,N,Africa/Casablanca,airport,OurAirports
FIH,1020.0,Ndjili International Airport,Kinshasa,Congo (Kinshasa),FZAA,-4.38574981689,15.4446001053,1027.0,1,N,Africa/Kinshasa,airport,OurAirports
FKL,4058.0,Venango Regional Airport,Franklin,United States,KFKL,41.3778991699,-79.8603973389,1540.0,-5,A,America/New_York,airport,OurAirports
FKS,5999.0,Fukushima Airport,Fukushima,Japan,RJSF,37.22740173339844,140.43099975585938,1221.0,9,U,Asia/Tokyo,airport,OurAirports
FLA,2719.0,Gustavo Artunduaga Paredes Airport,Florencia,Colombia,SKFL,1.5891899999999999,-75.5644,803.0,-5,U,America/Bogota,airport,OurAirports
FLG,4261.0,Flagstaff Pulliam Airport,Flagstaff,United States,KFLG,35.13850021,-111.6709976,7014.0,-7,N,America/Phoenix,airport,OurAirports
FLL,3533.0,Fort Lauderdale Hollywood International Airport,Fort Lauderdale,United States,KFLL,26.072599411010746,-80.15270233154297,9.0,-5,A,America/New_York,airport,OurAirports
FLN,2555.0,Hercílio Luz International Airport,Florianopolis,Brazil,SBFL,-27.670278549194336,-48.5525016784668,16.0,-3,S,America/Sao_Paulo,airport,OurAirports
FLO,3879.0,Florence Regional Airport,Florence,United States,KFLO,34.18539810180664,-79.7238998413086,146.0,-5,A,America/New_York,airport,OurAirports
FLR,1563.0,Peretola Airport,Florence,Italy,LIRQ,43.810001,11.2051,142.0,1,E,Europe/Rome,airport,OurAirports
FMA,2470.0,Formosa Airport,Formosa,Argentina,SARF,-26.2127,-58.2281,193.0,-3,N,America/Cordoba,airport,OurAirports
FMN,3743.0,Four Corners Regional Airport,Farmington,United States,KFMN,36.7411994934,-108.230003357,5506.0,-7,A,America/Denver,airport,OurAirports
FMO,341.0,Münster Osnabrück Airport,Munster,Germany,EDDG,52.134601593,7.68483018875,160.0,1,E,Europe/Berlin,airport,OurAirports
FNA,1059.0,Lungi International Airport,Freetown,Sierra Leone,GFLL,8.616439819335938,-13.195500373840332,84.0,0,N,Africa/Freetown,airport,OurAirports
FNC,4091.0,Madeira Airport,Funchal,Portugal,LPMA,32.697898864746,-16.774499893188,192.0,0,E,Europe/Lisbon,airport,OurAirports
FNJ,3377.0,Pyongyang Sunan International Airport,Pyongyang,North Korea,ZKPY,39.224098,125.66999799999999,117.0,8.5,U,Asia/Pyongyang,airport,OurAirports
FNT,4089.0,Bishop International Airport,Flint,United States,KFNT,42.96540069580078,-83.74359893798828,782.0,-5,A,America/New_York,airport,OurAirports
FOC,3385.0,Fuzhou Changle International Airport,Fuzhou,China,ZSFZ,25.935100555419922,119.66300201416016,46.0,8,U,Asia/Shanghai,airport,OurAirports
FOE,3843.0,Topeka Regional Airport - Forbes Field,Topeka,United States,KFOE,38.9509010315,-95.6635971069,1078.0,-6,A,America/Chicago,airport,OurAirports
FOR,2559.0,Pinto Martins International Airport,Fortaleza,Brazil,SBFZ,-3.776279926300049,-38.53260040283203,82.0,-3,S,America/Fortaleza,airport,OurAirports
FPO,1948.0,Grand Bahama International Airport,Freeport,Bahamas,MYGF,26.5587005615,-78.695602417,7.0,-5,U,America/Nassau,airport,OurAirports
FRA,340.0,Frankfurt am Main International Airport,Frankfurt,Germany,EDDF,50.033333299999995,8.5705556,364.0,1,E,Europe/Berlin,airport,OurAirports
FRU,2912.0,Manas International Airport,Bishkek,Kyrgyzstan,UAFM,43.0612983704,74.4776000977,2058.0,6,U,Asia/Bishkek,airport,OurAirports
FSC,1323.0,Figari Sud-Corse Airport,Figari,France,LFKF,41.5005989074707,9.097780227661133,87.0,1,E,Europe/Paris,airport,OurAirports
FSD,4009.0,Joe Foss Field Airport,Sioux Falls,United States,KFSD,43.5820007324,-96.741897583,1429.0,-6,A,America/Chicago,airport,OurAirports
FSM,3437.0,Fort Smith Regional Airport,Fort Smith,United States,KFSM,35.33660125732422,-94.36740112304688,469.0,-6,A,America/Chicago,airport,OurAirports
FSZ,6476.0,Mt. Fuji Shizuoka Airport,Shizuoka,Japan,RJNS,34.796110999999996,138.18944399999998,433.0,9,N,Asia/Tokyo,airport,User
FTE,4061.0,El Calafate Airport,El Calafate,Argentina,SAWC,-50.2803,-72.053101,669.0,-3,N,America/Argentina/Rio_Gallegos,airport,OurAirports
FUE,1051.0,Fuerteventura Airport,Fuerteventura,Spain,GCFV,28.452699661254886,-13.863800048828125,85.0,0,E,Atlantic/Canary,airport,OurAirports
FUG,7503.0,Fuyang Xiguan Airport,Fuyang,China,ZSFY,32.882157,115.73436399999999,104.0,8,U,Asia/Shanghai,airport,OurAirports
FUJ,2304.0,Fukue Airport,Fukue,Japan,RJFE,32.66630172729492,128.83299255371094,273.0,9,U,Asia/Tokyo,airport,OurAirports
FUK,2305.0,Fukuoka Airport,Fukuoka,Japan,RJFF,33.585899353027344,130.45100402832028,32.0,9,U,Asia/Tokyo,airport,OurAirports
FUO,7457.0,Foshan,Foshan,China,\N,23.133333,113.28333,8.0,8,N,Asia/Shanghai,unknown,User
FWA,4041.0,Fort Wayne International Airport,Fort Wayne,United States,KFWA,40.97850037,-85.19509888,814.0,-5,A,America/New_York,airport,OurAirports
GAJ,2341.0,Yamagata Airport,Yamagata,Japan,RJSC,38.4118995667,140.371002197,353.0,9,U,Asia/Tokyo,airport,OurAirports
GAU,6173.0,Lokpriya Gopinath Bordoloi International Airport,Guwahati,India,VEGT,26.10610008239746,91.58589935302734,162.0,5.5,N,Asia/Calcutta,airport,OurAirports
GBE,881.0,Sir Seretse Khama International Airport,Gaberone,Botswana,FBSK,-24.55520057678223,25.91819953918457,3299.0,2,U,Africa/Gaborone,airport,OurAirports
GBT,6747.0,Gorgan Airport,Gorgan,Iran,OING,36.909400939899996,54.4012985229,-24.0,3.5,E,Asia/Tehran,airport,OurAirports
GCC,4296.0,Gillette Campbell County Airport,Gillette,United States,KGCC,44.3488998413,-105.539001465,4365.0,-7,A,America/Denver,airport,OurAirports
GCK,3497.0,Garden City Regional Airport,Garden City,United States,KGCK,37.9275016785,-100.72399902299999,2891.0,-6,A,America/Chicago,airport,OurAirports
GCM,1926.0,Owen Roberts International Airport,Georgetown,Cayman Islands,MWCR,19.292800903299998,-81.3576965332,8.0,-5,N,America/Cayman,airport,OurAirports
GDE,5680.0,Gode Airport,Gode,Ethiopia,HAGO,5.935130119319999,43.578601837200004,834.0,3,U,Africa/Addis_Ababa,airport,OurAirports
GDL,1804.0,Don Miguel Hidalgo Y Costilla International Airport,Guadalajara,Mexico,MMGL,20.521799087524414,-103.31099700927734,5016.0,-6,S,America/Mexico_City,airport,OurAirports
GDN,668.0,Gdańsk Lech Wałęsa Airport,Gdansk,Poland,EPGD,54.377601623535156,18.46619987487793,489.0,1,E,Europe/Warsaw,airport,OurAirports
GDQ,1114.0,Gonder Airport,Gondar,Ethiopia,HAGN,12.51990032196045,37.433998107910156,6449.0,3,U,Africa/Addis_Ababa,airport,OurAirports
GDX,2930.0,Sokol Airport,Magadan,Russia,UHMM,59.9109992980957,150.72000122070312,574.0,11,N,Asia/Srednekolymsk,airport,OurAirports
GDZ,6933.0,Gelendzhik Airport,Gelendzhik,Russia,URKG,44.582092629499996,38.0124807358,98.0,3,N,Europe/Moscow,airport,OurAirports
GEG,3467.0,Spokane International Airport,Spokane,United States,KGEG,47.61989974975586,-117.53399658203124,2376.0,-8,A,America/Los_Angeles,airport,OurAirports
GET,6268.0,Geraldton Airport,Geraldton,Australia,YGEL,-28.796101,114.707001,121.0,8,O,Australia/Perth,airport,OurAirports
GEV,715.0,Gällivare Airport,Gallivare,Sweden,ESNG,67.13240051269531,20.814599990844727,1027.0,1,E,Europe/Stockholm,airport,OurAirports
GFK,3442.0,Grand Forks International Airport,Grand Forks,United States,KGFK,47.949298999999996,-97.176102,845.0,-6,A,America/Chicago,airport,OurAirports
GGG,3465.0,East Texas Regional Airport,Longview,United States,KGGG,32.38399887084961,-94.71150207519531,365.0,-6,A,America/Chicago,airport,OurAirports
GGT,1941.0,Exuma International Airport,Great Exuma,Bahamas,MYEF,23.5625991821,-75.8779983521,9.0,-5,U,America/Nassau,airport,OurAirports
GHB,1944.0,Governor's Harbour Airport,Governor's Harbor,Bahamas,MYEM,25.2847003937,-76.3310012817,26.0,-5,U,America/Nassau,airport,OurAirports
GIB,1738.0,Gibraltar Airport,Gibraltar,Gibraltar,LXGB,36.1511993408,-5.3496599197400005,15.0,1,N,Europe/Gibraltar,airport,OurAirports
GIG,2560.0,Rio Galeão – Tom Jobim International Airport,Rio De Janeiro,Brazil,SBGL,-22.809999465900002,-43.2505569458,28.0,-3,S,America/Sao_Paulo,airport,OurAirports
GIS,2012.0,Gisborne Airport,Gisborne,New Zealand,NZGS,-38.66329956054688,177.97799682617188,15.0,12,Z,Pacific/Auckland,airport,OurAirports
GIU,9229.0,Sigiriya Air Force Base,Sigiriya,Sri Lanka,VCCS,7.956669807430002,80.7285003662,630.0,5.5,N,Asia/Colombo,airport,OurAirports
GIZ,2066.0,Jizan Regional Airport,Gizan,Saudi Arabia,OEGN,16.901100158691403,42.58580017089844,20.0,3,U,Asia/Riyadh,airport,OurAirports
GJT,4063.0,Grand Junction Regional Airport,Grand Junction,United States,KGJT,39.1223983765,-108.527000427,4858.0,-7,A,America/Denver,airport,OurAirports
GLA,534.0,Glasgow International Airport,Glasgow,United Kingdom,EGPF,55.8718986511,-4.43306016922,26.0,0,E,Europe/London,airport,OurAirports
GLT,6269.0,Gladstone Airport,Gladstone,Australia,YGLA,-23.869699,151.223007,64.0,10,O,Australia/Brisbane,airport,OurAirports
GMB,1113.0,Gambella Airport,Gambella,Ethiopia,HAGM,8.12876033782959,34.563098907470696,1614.0,3,U,Africa/Addis_Ababa,airport,OurAirports
GMP,2378.0,Gimpo International Airport,Seoul,South Korea,RKSS,37.5583000183,126.791000366,58.0,9,U,Asia/Seoul,airport,OurAirports
GND,2882.0,Point Salines International Airport,Point Salines,Grenada,TGPY,12.004199981689453,-61.78620147705078,41.0,-4,U,America/Grenada,airport,OurAirports
GNV,3472.0,Gainesville Regional Airport,Gainesville,United States,KGNV,29.6900997162,-82.27179718020001,152.0,-5,A,America/New_York,airport,OurAirports
GNY,9044.0,Şanlıurfa GAP Airport,Sanliurfa,Turkey,LTCS,37.44566345214844,38.895591735839844,2708.0,3,E,Europe/Istanbul,airport,OurAirports
GOA,1528.0,Genoa Cristoforo Colombo Airport,Genoa,Italy,LIMJ,44.4133,8.8375,13.0,1,E,Europe/Rome,airport,OurAirports
GOI,3007.0,Dabolim Airport,Goa,India,VAGO,15.3808002472,73.83139801029999,150.0,5.5,N,Asia/Calcutta,airport,OurAirports
GOJ,4274.0,Nizhny Novgorod Strigino International Airport,Nizhniy Novgorod,Russia,UWGG,56.23009872436499,43.784000396729,256.0,3,N,Europe/Moscow,airport,OurAirports
GOQ,6363.0,Golmud Airport,Golmud,China,ZLGM,36.4006,94.786102,9334.0,8,U,Asia/Shanghai,airport,OurAirports
GOT,687.0,Gothenburg-Landvetter Airport,Gothenborg,Sweden,ESGG,57.662799835205,12.279800415039,506.0,1,E,Europe/Stockholm,airport,OurAirports
GOV,6316.0,Gove Airport,Gove,Australia,YPGV,-12.269399642899998,136.817993164,192.0,9.5,O,Australia/Darwin,airport,OurAirports
GPI,2722.0,Juan Casiano Airport,Guapi,Colombia,SKGP,2.57013,-77.8986,164.0,-5,U,America/Bogota,airport,OurAirports
GPT,4038.0,Gulfport Biloxi International Airport,Gulfport,United States,KGPT,30.40730094909668,-89.07009887695312,28.0,-6,A,America/Chicago,airport,OurAirports
GRB,3653.0,Austin Straubel International Airport,Green Bay,United States,KGRB,44.48509979248047,-88.12960052490234,695.0,-6,A,America/Chicago,airport,OurAirports
GRI,5740.0,Central Nebraska Regional Airport,Grand Island,United States,KGRI,40.96749877929688,-98.30960083007812,1847.0,-6,A,America/Chicago,airport,OurAirports
GRJ,804.0,George Airport,George,South Africa,FAGG,-34.0055999756,22.378900528000003,648.0,2,U,Africa/Johannesburg,airport,OurAirports
GRK,3775.0,Robert Gray  Army Air Field Airport,Killeen,United States,KGRK,31.067199706999997,-97.8289031982,1015.0,-6,A,America/Chicago,airport,OurAirports
GRR,3685.0,Gerald R. Ford International Airport,Grand Rapids,United States,KGRR,42.88079834,-85.52279663,794.0,-5,A,America/New_York,airport,OurAirports
GRU,2564.0,Guarulhos - Governador André Franco Montoro International Airport,Sao Paulo,Brazil,SBGR,-23.435556411743164,-46.47305679321289,2459.0,-3,S,America/Sao_Paulo,airport,OurAirports
GRX,1223.0,Federico Garcia Lorca Airport,Granada,Spain,LEGR,37.18870162963867,-3.777359962463379,1860.0,1,E,Europe/Madrid,airport,OurAirports
GRZ,1609.0,Graz Airport,Graz,Austria,LOWG,46.9911003112793,15.439599990844727,1115.0,1,E,Europe/Vienna,airport,OurAirports
GSO,4008.0,Piedmont Triad International Airport,Greensboro,United States,KGSO,36.097801208496094,-79.93730163574219,925.0,-5,A,America/New_York,airport,OurAirports
GSP,4034.0,Greenville Spartanburg International Airport,Greenville,United States,KGSP,34.895698547399995,-82.2189025879,964.0,-5,A,America/New_York,airport,OurAirports
GTF,3880.0,Great Falls International Airport,Great Falls,United States,KGTF,47.48199844,-111.3710022,3680.0,-7,A,America/Denver,airport,OurAirports
GTO,3247.0,Jalaluddin Airport,Gorontalo,Indonesia,WAMG,0.6371189951899999,122.849998474,105.0,8,N,Asia/Makassar,airport,OurAirports
GTR,4273.0,Golden Triangle Regional Airport,Columbus Mississippi,United States,KGTR,33.450298309299995,-88.59140014649999,264.0,-6,A,America/Chicago,airport,OurAirports
GUA,1767.0,La Aurora Airport,Guatemala City,Guatemala,MGGT,14.58329963684082,-90.52749633789062,4952.0,-6,U,America/Guatemala,airport,OurAirports
GUC,7051.0,Gunnison Crested Butte Regional Airport,Gunnison,United States,KGUC,38.53390121,-106.9329987,7680.0,-7,A,America/Denver,airport,OurAirports
GUM,2246.0,Antonio B. Won Pat International Airport,Agana,Guam,PGUM,13.4834003448,144.796005249,298.0,10,U,Pacific/Guam,airport,OurAirports
GVA,1665.0,Geneva Cointrin International Airport,Geneva,Switzerland,LSGG,46.23809814453125,6.108950138092041,1411.0,1,E,Europe/Paris,airport,OurAirports
GWL,3094.0,Gwalior Airport,Gwalior,India,VIGR,26.29330062866211,78.22779846191406,617.0,5.5,N,Asia/Calcutta,airport,OurAirports
GWT,410.0,Westerland Sylt Airport,Westerland,Germany,EDXW,54.9132003784,8.34047031403,51.0,1,E,Europe/Berlin,airport,OurAirports
GYD,2922.0,Heydar Aliyev International Airport,Baku,Azerbaijan,UBBB,40.46749877929688,50.04669952392578,10.0,4,E,Asia/Baku,airport,OurAirports
GYE,2673.0,José Joaquín de Olmedo International Airport,Guayaquil,Ecuador,SEGU,-2.15741991997,-79.88359832760001,19.0,-5,U,America/Guayaquil,airport,OurAirports
GYN,2562.0,Santa Genoveva Airport,Goiania,Brazil,SBGO,-16.631999969482422,-49.22069931030274,2450.0,-3,S,America/Sao_Paulo,airport,OurAirports
GYS,6398.0,Guangyuan Airport,Guangyuan,China,ZUGU,32.391101837158196,105.7020034790039,0.0,8,U,Asia/Shanghai,airport,OurAirports
GZP,8266.0,Gazipaşa Airport,Alanya,Turkey,LTGP,36.2992172241,32.3005981445,86.0,3,E,Europe/Istanbul,airport,OurAirports
GZT,1689.0,Gaziantep International Airport,Gaziantep,Turkey,LTAJ,36.9472007751,37.4786987305,2315.0,3,E,Europe/Istanbul,airport,OurAirports
HAC,2352.0,Hachijojima Airport,Hachijojima,Japan,RJTH,33.1150016785,139.785995483,303.0,9,U,Asia/Tokyo,airport,OurAirports
HAD,709.0,Halmstad Airport,Halmstad,Sweden,ESMT,56.69110107421875,12.820199966430664,101.0,1,E,Europe/Stockholm,airport,OurAirports
HAH,912.0,Prince Said Ibrahim International Airport,Moroni,Comoros,FMCH,-11.5337,43.2719,93.0,3,U,Indian/Comoro,airport,OurAirports
HAJ,352.0,Hannover Airport,Hannover,Germany,EDDV,52.461101532,9.68507957458,183.0,1,E,Europe/Berlin,airport,OurAirports
HAK,4120.0,Haikou Meilan International Airport,Haikou,China,ZJHK,19.93490028381348,110.45899963378906,75.0,8,U,Asia/Shanghai,airport,OurAirports
HAM,342.0,Hamburg Airport,Hamburg,Germany,EDDH,53.630401611328004,9.988229751586902,53.0,1,E,Europe/Berlin,airport,OurAirports
HAN,3199.0,Noi Bai International Airport,Hanoi,Vietnam,VVNB,21.221200942993164,105.80699920654295,39.0,7,U,Asia/Saigon,airport,OurAirports
HAS,2069.0,Ha'il Airport,Hail,Saudi Arabia,OEHL,27.437901,41.686298,3331.0,3,U,Asia/Riyadh,airport,OurAirports
HAU,645.0,Haugesund Airport,Haugesund,Norway,ENHD,59.34529876709001,5.208360195159901,86.0,1,E,Europe/Oslo,airport,OurAirports
HAV,1909.0,José Martí International Airport,Havana,Cuba,MUHA,22.989200592041016,-82.40910339355469,210.0,-5,U,America/Havana,airport,OurAirports
HBA,3336.0,Hobart International Airport,Hobart,Australia,YMHB,-42.836101532,147.50999450700002,13.0,10,O,Australia/Melbourne,airport,OurAirports
HBE,3410.0,Borg El Arab International Airport,Alexandria,Egypt,HEBA,30.91769981384277,29.696399688720703,177.0,2,U,Africa/Cairo,airport,OurAirports
HDG,8407.0,Handan Airport,Handan,China,ZBHD,36.5258333333,114.425555556,229.0,8,N,Asia/Shanghai,airport,OurAirports
HDN,4339.0,Yampa Valley Airport,Hayden,United States,KHDN,40.48120117,-107.21800230000001,6606.0,-7,A,America/Denver,airport,OurAirports
HDS,811.0,Hoedspruit Air Force Base Airport,Hoedspruit,South Africa,FAHS,-24.3686008453,31.048700332600003,1743.0,2,U,Africa/Johannesburg,airport,OurAirports
HDY,3181.0,Hat Yai International Airport,Hat Yai,Thailand,VTSS,6.933209896089999,100.392997742,90.0,7,U,Asia/Bangkok,airport,OurAirports
HEK,6410.0,Heihe Airport,Heihe,China,ZYHE,50.1716209371,127.308883667,8530.0,8,U,Asia/Shanghai,airport,OurAirports
HEL,421.0,Helsinki Vantaa Airport,Helsinki,Finland,EFHK,60.317199707031,24.963300704956,179.0,2,E,Europe/Helsinki,airport,OurAirports
HER,1452.0,Heraklion International Nikos Kazantzakis Airport,Heraklion,Greece,LGIR,35.3396987915,25.1802997589,115.0,2,E,Europe/Athens,airport,OurAirports
HET,6345.0,Baita International Airport,Hohhot,China,ZBHH,40.851398468,111.823997498,3556.0,8,U,Asia/Shanghai,airport,OurAirports
HFE,3389.0,Hefei Luogang International Airport,Hefei,China,ZSOF,31.78000068664551,117.2979965209961,108.0,8,U,Asia/Shanghai,airport,OurAirports
HGA,1121.0,Egal International Airport,Hargeisa,Somalia,HCMH,9.518170356750488,44.08879852294922,4423.0,3,U,Africa/Mogadishu,airport,OurAirports
HGH,3386.0,Hangzhou Xiaoshan International Airport,Hangzhou,China,ZSHC,30.22949981689453,120.43399810791016,23.0,8,U,Asia/Shanghai,airport,OurAirports
HHH,8314.0,Hilton Head Airport,Hilton Head Island,United States,KHXD,32.2243995667,-80.6975021362,19.0,-5,A,America/New_York,airport,OurAirports
HIA,7898.0,Huai An Lianshui Airport,Huai An,China,ZSSH,33.7772,119.1478,23.0,8,N,Asia/Shanghai,airport,User
HIB,3650.0,Range Regional Airport,Hibbing,United States,KHIB,47.38660049,-92.83899689,1354.0,-6,A,America/Chicago,airport,OurAirports
HID,6272.0,Horn Island Airport,Horn Island,Australia,YHID,-10.586400032,142.289993286,43.0,10,O,Australia/Brisbane,airport,OurAirports
HIJ,2326.0,Hiroshima Airport,Hiroshima,Japan,RJOA,34.4361000061,132.91900634799998,1088.0,9,U,Asia/Tokyo,airport,OurAirports
HIN,6007.0,Sacheon Air Base,Sacheon,South Korea,RKPS,35.0885009765625,128.07000732421878,25.0,9,U,Asia/Seoul,airport,OurAirports
HJJ,7519.0,Zhijiang Airport,Zhijiang,China,ZGCJ,27.4411111111,109.7,882.0,8,U,Asia/Shanghai,airport,OurAirports
HJR,3012.0,Khajuraho Airport,Khajuraho,India,VAKJ,24.817199706999997,79.91860198970001,728.0,5.5,N,Asia/Calcutta,airport,OurAirports
HKD,2288.0,Hakodate Airport,Hakodate,Japan,RJCH,41.7700004578,140.822006226,151.0,9,U,Asia/Tokyo,airport,OurAirports
HKG,3077.0,Chek Lap Kok International Airport,Hong Kong,Hong Kong,VHHH,22.3089008331,113.915000916,28.0,8,U,Asia/Hong_Kong,airport,OurAirports
HKK,2014.0,Hokitika Airfield,Hokitika,New Zealand,NZHK,-42.713600158691406,170.98500061035156,146.0,12,Z,Pacific/Auckland,airport,OurAirports
HKT,3179.0,Phuket International Airport,Phuket,Thailand,VTSP,8.11320018768,98.3169021606,82.0,7,U,Asia/Bangkok,airport,OurAirports
HLA,820.0,Lanseria Airport,Johannesburg,South Africa,FALA,-25.9384994507,27.926099777199997,4517.0,2,U,Africa/Johannesburg,airport,OurAirports
HLD,3366.0,Dongshan Airport,Hailar,China,ZBLA,49.2050018311,119.82499694799999,2169.0,8,U,Asia/Shanghai,airport,OurAirports
HLH,6349.0,Ulanhot Airport,Ulanhot,China,ZBUL,46.195333000000005,122.00833300000001,0.0,8,U,Asia/Shanghai,airport,OurAirports
HLN,3504.0,Helena Regional Airport,Helena,United States,KHLN,46.6068000793457,-111.98300170898438,3877.0,-7,A,America/Denver,airport,OurAirports
HLZ,2015.0,Hamilton International Airport,Hamilton,New Zealand,NZHN,-37.8666992188,175.332000732,172.0,12,Z,Pacific/Auckland,airport,OurAirports
HMB,8235.0,Sohag International Airport,Sohag,Egypt,HEMK,26.342778000000003,31.742778,310.0,2,E,Africa/Cairo,airport,OurAirports
HMI,6743.0,Hami Airport,Hami,China,ZWHM,42.8414001465,93.6691970825,2703.0,8,U,Asia/Shanghai,airport,OurAirports
HMO,1807.0,General Ignacio P. Garcia International Airport,Hermosillo,Mexico,MMHO,29.095899581900007,-111.047996521,627.0,-7,S,America/Hermosillo,airport,OurAirports
HMV,5599.0,Hemavan Airport,Hemavan,Sweden,ESUT,65.80609893798828,15.082799911499025,1503.0,1,E,Europe/Stockholm,airport,OurAirports
HNA,2344.0,Hanamaki Airport,Hanamaki,Japan,RJSI,39.4286003112793,141.13499450683594,297.0,9,U,Asia/Tokyo,airport,OurAirports
HND,2359.0,Tokyo Haneda International Airport,Tokyo,Japan,RJTT,35.552299,139.779999,35.0,9,U,Asia/Tokyo,airport,OurAirports
HNL,3728.0,Honolulu International Airport,Honolulu,United States,PHNL,21.318700790405273,-157.9219970703125,13.0,-10,N,Pacific/Honolulu,airport,OurAirports
HOB,3749.0,Lea County Regional Airport,Hobbs,United States,KHOB,32.6875,-103.21700290000001,3661.0,-7,A,America/Denver,airport,OurAirports
HOF,2060.0,Al Ahsa Airport,Al-ahsa,Saudi Arabia,OEAH,25.28529930114746,49.48519897460938,588.0,3,U,Asia/Riyadh,airport,OurAirports
HOG,1910.0,Frank Pais International Airport,Holguin,Cuba,MUHG,20.785600662231445,-76.31510162353516,361.0,-5,U,America/Havana,airport,OurAirports
HON,3491.0,Huron Regional Airport,Huron,United States,KHON,44.38520050048828,-98.22850036621094,1289.0,-6,A,America/Chicago,airport,OurAirports
HOR,1628.0,Horta Airport,Horta,Portugal,LPHR,38.51990127563477,-28.715900421142575,118.0,-1,E,Atlantic/Azores,airport,OurAirports
HOU,3566.0,William P Hobby Airport,Houston,United States,KHOU,29.64539909,-95.27890015,46.0,-6,A,America/Chicago,airport,OurAirports
HPH,6188.0,Cat Bi International Airport,Haiphong,Vietnam,VVCI,20.81940078735352,106.7249984741211,6.0,7,U,Asia/Saigon,airport,OurAirports
HPN,3589.0,Westchester County Airport,White Plains,United States,KHPN,41.06700134277344,-73.70760345458984,439.0,-5,A,America/New_York,airport,OurAirports
HRB,3400.0,Taiping Airport,Harbin,China,ZYHB,45.6234016418457,126.25,457.0,8,U,Asia/Shanghai,airport,OurAirports
HRE,1005.0,Harare International Airport,Harare,Zimbabwe,FVHA,-17.931800842285156,31.09280014038086,4887.0,2,U,Africa/Harare,airport,OurAirports
HRG,1130.0,Hurghada International Airport,Hurghada,Egypt,HEGN,27.178300857543945,33.799400329589844,52.0,2,U,Africa/Cairo,airport,OurAirports
HRI,8949.0,Mattala Rajapaksa International Airport,Mattala,Sri Lanka,VCRI,6.284467,81.124128,157.0,5.5,N,Asia/Colombo,airport,OurAirports
HRK,6105.0,Kharkiv International Airport,Kharkov,Ukraine,UKHH,49.92480087280274,36.290000915527344,508.0,2,E,Europe/Kiev,airport,OurAirports
HRL,3560.0,Valley International Airport,Harlingen,United States,KHRL,26.228500366210934,-97.65440368652344,36.0,-6,A,America/Chicago,airport,OurAirports
HSG,5996.0,Saga Airport,Saga,Japan,RJFS,33.149700164799995,130.302001953,6.0,9,N,Asia/Tokyo,airport,OurAirports
HSN,6395.0,Zhoushan Airport,Zhoushan,China,ZSZS,29.9342002869,122.36199951200001,3.0,8,U,Asia/Shanghai,airport,OurAirports
HSV,4113.0,Huntsville International Carl T Jones Field,Huntsville,United States,KHSV,34.637199401855,-86.775100708008,629.0,-6,A,America/Chicago,airport,OurAirports
HTA,2935.0,Chita-Kadala Airport,Chita,Russia,UIAA,52.026299,113.306,2272.0,9,N,Asia/Yakutsk,airport,OurAirports
HTI,6242.0,Hamilton Island Airport,Hamilton Island,Australia,YBHM,-20.358100891099998,148.95199585,15.0,10,O,Australia/Brisbane,airport,OurAirports
HTN,3398.0,Hotan Airport,Hotan,China,ZWTN,37.03850173950195,79.86489868164062,4672.0,8,U,Asia/Shanghai,airport,OurAirports
HTS,5742.0,Tri-State/Milton J. Ferguson Field,Huntington,United States,KHTS,38.36669922,-82.55799866,828.0,-5,A,America/New_York,airport,OurAirports
HTY,7453.0,Hatay Airport,Hatay,Turkey,LTDA,36.36277771,36.282222747800006,269.0,3,U,Europe/Istanbul,airport,OurAirports
HUI,3201.0,Phu Bai Airport,Hue,Vietnam,VVPB,16.401500701899998,107.70300293,48.0,7,U,Asia/Saigon,airport,OurAirports
HUX,1786.0,Bahías de Huatulco International Airport,Huatulco,Mexico,MMBT,15.77530002593994,-96.26260375976562,464.0,-6,S,America/Mexico_City,airport,OurAirports
HUY,515.0,Humberside Airport,Humberside,United Kingdom,EGNJ,53.57440185546875,-0.350832998752594,121.0,0,E,Europe/London,airport,OurAirports
HVB,4052.0,Hervey Bay Airport,Hervey Bay,Australia,YHBA,-25.3188991547,152.880004883,60.0,10,O,Australia/Brisbane,airport,OurAirports
HVN,4006.0,Tweed New Haven Airport,New Haven,United States,KHVN,41.26369858,-72.88680267,12.0,-5,A,America/New_York,airport,OurAirports
HYD,12087.0,Rajiv Gandhi International Airport,Hyderabad,India,VOHS,17.2405,78.4288,2024.0,5.5,N,\N,airport,User
HYN,6384.0,Huangyan Luqiao Airport,Huangyan,China,ZSLQ,28.56220054626465,121.4290008544922,0.0,8,U,Asia/Shanghai,airport,OurAirports
HZH,7508.0,Liping Airport,Liping,China,ZUNP,26.32217,109.1499,1620.0,8,U,Asia/Shanghai,airport,OurAirports
IAD,3714.0,Washington Dulles International Airport,Washington,United States,KIAD,38.94449997,-77.45580292,312.0,-5,A,America/New_York,airport,OurAirports
IAH,3550.0,George Bush Intercontinental Houston Airport,Houston,United States,KIAH,29.98439979553223,-95.34140014648438,97.0,-6,A,America/Chicago,airport,OurAirports
IAS,1655.0,Iaşi Airport,Iasi,Romania,LRIA,47.17850112915039,27.6205997467041,397.0,2,E,Europe/Bucharest,airport,OurAirports
IBE,2724.0,Perales Airport,Ibague,Colombia,SKIB,4.42161,-75.1333,2999.0,-5,U,America/Bogota,airport,OurAirports
IBZ,1225.0,Ibiza Airport,Ibiza,Spain,LEIB,38.8728981018,1.3731199502899998,24.0,1,E,Europe/Madrid,airport,OurAirports
ICN,3930.0,Incheon International Airport,Seoul,South Korea,RKSI,37.46910095214844,126.45099639892578,23.0,9,U,Asia/Seoul,airport,OurAirports
ICT,3457.0,Wichita Mid Continent Airport,Wichita,United States,KICT,37.649898529052734,-97.43309783935548,1333.0,-6,A,America/Chicago,airport,OurAirports
IDA,4100.0,Idaho Falls Regional Airport,Idaho Falls,United States,KIDA,43.51459884643555,-112.0709991455078,4744.0,-7,A,America/Denver,airport,OurAirports
IDR,3008.0,Devi Ahilyabai Holkar Airport,Indore,India,VAID,22.721799850500002,75.8011016846,1850.0,5.5,N,Asia/Calcutta,airport,OurAirports
IEV,2944.0,Kiev Zhuliany International Airport,Kiev,Ukraine,UKKK,50.40194,30.451940000000004,587.0,2,E,Europe/Kiev,airport,OurAirports
IFN,2121.0,Esfahan Shahid Beheshti International Airport,Esfahan,Iran,OIFM,32.75080108642578,51.86130142211914,5059.0,3.5,E,Asia/Tehran,airport,OurAirports
IGD,9043.0,Igdir,Igdir,Turkey,LTCT,39.983056,43.866389,3100.0,3,E,Europe/Istanbul,unknown,User
IGM,6132.0,Kingman Airport,Kingman,United States,IGM,35.2595,-113.93799999999999,3449.0,-7,A,America/Phoenix,airport,User
IGR,2471.0,Cataratas Del Iguazú International Airport,Iguazu Falls,Argentina,SARI,-25.737300872800002,-54.473400116,916.0,-3,N,America/Cordoba,airport,OurAirports
IGU,2554.0,Cataratas International Airport,Foz Do Iguacu,Brazil,SBFI,-25.60027885437012,-54.48500061035156,786.0,-3,S,America/Sao_Paulo,airport,OurAirports
IKA,4330.0,Imam Khomeini International Airport,Tehran,Iran,OIIE,35.416099548339844,51.152198791503906,3305.0,3.5,E,Asia/Tehran,airport,OurAirports
IKI,2295.0,Iki Airport,Iki,Japan,RJDB,33.7490005493,129.785003662,41.0,9,U,Asia/Tokyo,airport,OurAirports
IKT,2937.0,Irkutsk Airport,Irkutsk,Russia,UIII,52.268001556396,104.38899993896,1675.0,8,N,Asia/Irkutsk,airport,OurAirports
ILD,7459.0,Lleida-Alguaire Airport,Lleida,Spain,LEDA,41.728184999999996,0.5350229999999999,1170.0,1,E,Europe/Madrid,airport,OurAirports
ILM,3845.0,Wilmington International Airport,Wilmington,United States,KILM,34.27059936523437,-77.90260314941406,32.0,-5,A,America/New_York,airport,OurAirports
IMF,3050.0,Imphal Airport,Imphal,India,VEIM,24.760000228899997,93.896697998,2540.0,5.5,N,Asia/Calcutta,airport,OurAirports
IMP,2572.0,Prefeito Renato Moreira Airport,Imperatriz,Brazil,SBIZ,-5.531290054321289,-47.459999084472656,432.0,-3,S,America/Fortaleza,airport,OurAirports
IMT,6837.0,Ford Airport,Iron Mountain,United States,KIMT,45.8184013367,-88.11450195309999,1182.0,-6,A,America/Chicago,airport,OurAirports
INC,4085.0,Yinchuan Airport,Yinchuan,China,ZLIC,38.481899,106.009003,0.0,8,U,Asia/Shanghai,airport,OurAirports
IND,3585.0,Indianapolis International Airport,Indianapolis,United States,KIND,39.7173,-86.294403,797.0,-5,A,America/New_York,airport,OurAirports
INL,3535.0,Falls International Airport,International Falls,United States,KINL,48.566200256347656,-93.4030990600586,1185.0,-6,A,America/Chicago,airport,OurAirports
INN,1610.0,Innsbruck Airport,Innsbruck,Austria,LOWI,47.260201,11.344000000000001,1907.0,1,E,Europe/Vienna,airport,OurAirports
IOA,1451.0,Ioannina Airport,Ioannina,Greece,LGIO,39.6963996887207,20.82250022888184,1558.0,2,E,Europe/Athens,airport,OurAirports
IOM,520.0,Isle of Man Airport,Isle Of Man,Isle of Man,EGNS,54.08330154418945,-4.623889923095703,52.0,0,E,Europe/Isle_of_Man,airport,OurAirports
IOS,2569.0,Bahia - Jorge Amado Airport,Ilheus,Brazil,SBIL,-14.815999984741001,-39.033199310303004,15.0,-3,S,America/Fortaleza,airport,OurAirports
IPH,3302.0,Sultan Azlan Shah Airport,Ipoh,Malaysia,WMKI,4.567969799041748,101.09200286865234,130.0,8,N,Asia/Kuala_Lumpur,airport,OurAirports
IPT,3584.0,Williamsport Regional Airport,Williamsport,United States,KIPT,41.241798400878906,-76.92109680175781,529.0,-5,A,America/New_York,airport,OurAirports
IQN,6365.0,Qingyang Airport,Qingyang,China,ZLQY,35.799702,107.602997,0.0,8,U,Asia/Shanghai,airport,OurAirports
IQQ,2649.0,Diego Aracena Airport,Iquique,Chile,SCDA,-20.535200119018555,-70.18129730224611,155.0,-4,S,America/Santiago,airport,OurAirports
IQT,2801.0,Coronel FAP Francisco Secada Vignetta International Airport,Iquitos,Peru,SPQT,-3.7847399711608887,-73.30879974365234,306.0,-5,U,America/Lima,airport,OurAirports
IRJ,2458.0,Capitan V A Almonacid Airport,La Rioja,Argentina,SANL,-29.381599426300003,-66.7957992554,1437.0,-3,N,America/Argentina/La_Rioja,airport,OurAirports
ISA,3324.0,Mount Isa Airport,Mount Isa,Australia,YBMA,-20.6639003754,139.488998413,1121.0,10,O,Australia/Brisbane,airport,OurAirports
ISB,2223.0,Benazir Bhutto International Airport,Islamabad,Pakistan,OPRN,33.61669921875,73.09919738769531,1668.0,5,N,Asia/Karachi,airport,OurAirports
ISE,5801.0,Süleyman Demirel International Airport,Isparta,Turkey,LTFC,37.8554000854,30.368400573699997,2835.0,3,E,Europe/Istanbul,airport,OurAirports
ISG,2387.0,Ishigaki Airport,Ishigaki,Japan,ROIG,24.344499588,124.18699646,93.0,9,U,Asia/Tokyo,airport,OurAirports
ISN,3659.0,Sloulin Field International Airport,Williston,United States,KISN,48.177898407,-103.64199829100001,1982.0,-6,A,America/Chicago,airport,OurAirports
ISP,3857.0,Long Island Mac Arthur Airport,Islip,United States,KISP,40.79520035,-73.10019684,99.0,-5,A,America/New_York,airport,OurAirports
